,City,Cloudiness,Country,Date,Humidity,Temp,Lat,Lng,Wind Speed
0,tuktoyaktuk,90,CA,1595985103,93,48.2,69.45,-133.04,10.29
1,quatre cocos,20,MU,1595985488,83,69.8,-20.21,57.76,4.7
2,port pirie,0,AU,1595985488,48,60.8,-33.18,138.02,9.17
3,rafraf,20,TN,1595985488,53,73.4,37.19,10.18,3.36
4,cockburn town,14,TC,1595985488,81,83.28,21.46,-71.14,19.77
5,yellowknife,20,CA,1595984921,40,73.4,62.46,-114.35,10.29
6,ribeira grande,10,PT,1595984910,90,73.44,38.52,-28.7,11.99
7,port alfred,0,ZA,1595985098,81,58.03,-33.59,26.89,12.15
8,bannu,0,PK,1595985489,42,95.27,32.99,70.6,7.94
9,punta arenas,81,CL,1595985086,86,37.4,-53.15,-70.92,13.87
10,three hills,0,CA,1595985438,55,84.0,51.7,-113.27,1.1
11,aswan,0,EG,1595985489,31,89.89,24.09,32.91,4.05
12,mar del plata,40,AR,1595984842,81,43.0,-38.0,-57.56,9.17
13,albany,34,US,1595985081,49,75.0,42.6,-73.97,4.36
14,rikitea,3,PF,1595985080,80,72.52,-23.12,-134.97,15.23
15,bluff,100,NZ,1595984998,70,48.11,-46.6,168.33,7.54
16,hermanus,0,ZA,1595985091,75,52.47,-34.42,19.23,6.13
17,arraial do cabo,0,BR,1595985137,78,73.4,-22.97,-42.03,10.29
18,ushuaia,40,AR,1595984904,94,35.6,-54.8,-68.3,27.51
19,sao roque,40,BR,1595985489,82,73.0,-23.53,-47.14,13.87
20,bridlington,0,GB,1595985489,81,53.6,54.08,-0.19,8.05
21,constitucion,85,CL,1595984963,74,44.96,-35.33,-72.42,6.71
22,vaini,20,TO,1595985085,60,73.4,-21.2,-175.2,20.8
23,bredasdorp,0,ZA,1595985083,93,44.6,-34.53,20.04,3.36
24,kapaa,90,US,1595984907,69,82.4,22.08,-159.32,17.22
25,carnarvon,0,AU,1595984896,82,59.0,-24.87,113.63,12.75
26,lusambo,0,CD,1595985490,41,67.41,-4.97,23.45,0.98
27,yulara,0,AU,1595984909,30,57.2,-25.24,130.99,8.05
28,san borja,34,BO,1595985490,84,73.49,-14.82,-66.85,4.52
29,high wycombe,100,GB,1595985490,89,50.0,51.63,-0.75,6.29
30,norman wells,90,CA,1595984923,68,64.4,65.28,-126.83,13.87
31,camacupa,0,AO,1595985490,50,49.03,-12.02,17.48,2.75
32,labuhan,100,ID,1595985490,73,76.75,-6.88,112.21,10.63
33,batagay,1,RU,1595985490,46,55.58,67.63,134.63,7.52
34,tadine,23,NC,1595985490,68,75.22,-21.55,167.88,24.09
35,marawi,46,PH,1595985117,76,81.0,8.0,124.29,5.01
36,sompeta,100,IN,1595985490,83,83.05,18.93,84.6,6.22
37,kushiro,75,JP,1595985490,88,64.4,42.98,144.37,8.05
38,avarua,64,CK,1595984914,88,71.6,-21.21,-159.78,5.82
39,gubkinskiy,100,RU,1595985490,94,51.33,64.43,76.5,7.27
40,paita,0,PE,1595985136,83,61.79,-5.09,-81.11,13.06
41,cairns,0,AU,1595984877,23,73.4,-16.92,145.77,12.75
42,phon,100,TH,1595985491,65,83.88,15.82,102.6,5.68
43,kirakira,100,SB,1595985125,70,85.37,-10.45,161.92,5.77
44,atuona,0,PF,1595985094,72,80.06,-9.8,-139.03,22.91
45,lebu,64,CL,1595985095,84,45.55,-37.62,-73.65,14.09
46,mataura,100,NZ,1595985078,66,48.56,-46.19,168.86,6.29
47,bunbury,76,AU,1595985491,94,57.99,-33.33,115.63,2.48
48,el alto,0,PE,1595985491,90,59.99,-4.27,-81.21,14.14
49,bambous virieux,18,MU,1595984908,84,66.0,-20.34,57.76,3.0
50,fort nelson,75,CA,1595985099,45,68.0,58.81,-122.7,4.7
51,nikolskoye,40,RU,1595985088,93,62.01,59.7,30.79,4.05
52,east london,0,ZA,1595985098,69,61.75,-33.02,27.91,12.46
53,anaco,100,VE,1595985491,97,73.96,9.44,-64.47,3.36
54,puerto ayora,78,EC,1595985084,94,66.99,-0.74,-90.35,1.99
55,sungaipenuh,92,ID,1595985492,87,68.4,-2.08,101.38,1.41
56,butaritari,100,KI,1595985105,79,83.26,3.07,172.79,18.84
57,cape town,0,ZA,1595984808,93,50.0,-33.93,18.42,3.36
58,bethalto,5,US,1595985357,73,81.0,38.91,-90.04,5.82
59,jumla,100,NP,1595985492,71,64.06,29.27,82.18,4.74
60,saint-philippe,90,RE,1595985083,77,69.8,-21.36,55.77,10.29
61,san julian,100,MX,1595985492,88,63.57,21.02,-102.17,8.57
62,geraldton,0,AU,1595985118,82,55.4,-28.77,114.6,13.87
63,brokopondo,6,SR,1595985492,82,79.45,4.75,-55.17,3.27
64,ixtapa,90,MX,1595985492,70,86.0,20.7,-105.2,8.05
65,busselton,96,AU,1595985088,95,57.0,-33.65,115.33,3.78
66,pokaran,91,IN,1595985492,64,86.77,26.92,71.92,14.88
67,xining,9,CN,1595985492,54,64.78,36.62,101.77,2.91
68,sabha,0,LY,1595985492,28,78.46,27.04,14.43,11.25
69,jamestown,1,US,1595985022,56,73.4,42.1,-79.24,6.93
70,mantua,0,IT,1595985492,92,73.99,45.17,10.78,4.74
71,ambon,40,ID,1595985492,74,82.4,-3.7,128.18,9.17
72,lavrentiya,54,RU,1595985082,73,47.98,65.58,-171.0,6.67
73,new norfolk,100,AU,1595984938,93,46.0,-42.78,147.06,1.01
74,chemal,97,RU,1595985493,79,61.72,51.41,86.0,6.71
75,paracuru,0,BR,1595985493,75,80.01,-3.41,-39.03,17.0
76,husavik,90,IS,1595985145,81,48.2,66.04,-17.34,2.24
77,victoria,20,HK,1595984902,74,89.01,22.29,114.16,5.82
78,ngunguru,100,NZ,1595985493,23,60.01,-35.62,174.5,11.01
79,tasiilaq,42,GL,1595985107,100,41.0,65.61,-37.64,5.82
80,severo-kurilsk,55,RU,1595985081,80,53.82,50.68,156.12,17.76
81,talnakh,100,RU,1595985493,71,53.6,69.49,88.4,15.66
82,poum,100,NC,1595985019,84,74.3,-20.23,164.02,30.38
83,savonlinna,90,FI,1595985493,100,60.8,61.87,28.88,4.7
84,asau,0,RO,1595985132,86,64.0,46.43,26.4,4.47
85,makinsk,85,KZ,1595985493,92,54.75,52.63,70.42,9.75
86,upernavik,100,GL,1595984907,89,43.45,72.79,-56.15,9.53
87,klaksvik,100,FO,1595985144,93,46.4,62.23,-6.59,18.34
88,tazovskiy,91,RU,1595985493,74,49.91,67.47,78.7,7.16
89,airai,82,TL,1595984910,53,66.72,-8.93,125.41,4.23
90,ancud,67,CL,1595984934,100,39.99,-41.87,-73.82,3.58
91,honningsvag,13,NO,1595985494,69,60.17,70.98,25.97,11.36
92,barra da estiva,84,BR,1595985494,97,60.19,-13.63,-41.33,5.68
93,portland,20,US,1595985028,29,89.01,45.52,-122.68,8.05
94,jiangyou,100,CN,1595985452,82,73.56,31.77,104.72,7.0
95,markova,0,UA,1595985494,84,61.54,48.68,24.41,6.11
96,fortuna,40,US,1595985009,87,59.0,40.6,-124.16,13.87
97,huarmey,0,PE,1595985140,84,59.14,-10.07,-78.15,7.16
98,saskylakh,0,RU,1595985095,57,54.66,71.92,114.08,2.98
99,grindavik,90,IS,1595984959,100,50.0,63.84,-22.43,5.82
100,douglas,1,US,1595985351,69,84.99,41.3,-96.17,5.84
101,longhua,0,CN,1595985495,57,91.22,23.61,114.19,0.54
102,mazyr,98,BY,1595985495,89,65.46,52.05,29.25,5.59
103,pevek,30,RU,1595985116,86,35.96,69.7,170.31,10.18
104,rabo de peixe,40,PT,1595985495,100,71.6,37.8,-25.58,5.82
105,shubarshi,0,KZ,1595985119,56,64.8,48.59,57.19,5.84
106,hofn,0,IS,1595985087,81,50.99,64.25,-15.21,5.57
107,faanui,100,PF,1595985169,72,79.45,-16.48,-151.75,18.12
108,roma,40,US,1595985496,68,72.0,43.21,-75.46,3.36
109,barrow,90,US,1595985080,81,42.8,71.29,-156.79,20.8
110,kruisfontein,62,ZA,1595985104,86,55.99,-34.0,24.73,1.01
111,nanortalik,83,GL,1595985107,94,46.69,60.14,-45.24,10.07
112,padang,49,ID,1595984894,76,79.0,-0.95,100.35,3.11
113,hithadhoo,100,MV,1595985109,77,82.62,-0.6,73.08,12.41
114,provideniya,90,RU,1595985083,71,51.8,64.38,-173.3,13.42
115,paamiut,100,GL,1595985496,97,46.71,61.99,-49.67,5.35
116,hilo,90,US,1595985095,69,80.6,19.73,-155.09,12.75
117,georgetown,20,MY,1595984909,94,78.8,5.41,100.34,3.36
118,cajati,58,BR,1595985496,93,63.5,-24.74,-48.12,2.28
119,viedma,0,AR,1595985180,70,39.6,-40.81,-63.0,4.68
120,ola,95,RU,1595985496,85,59.23,59.58,151.28,7.7
121,jalu,0,LY,1595985032,67,74.7,29.03,21.55,9.4
122,likasi,0,CD,1595985496,72,51.21,-10.98,26.73,3.62
123,porirua,83,NZ,1595985496,76,57.0,-41.13,174.85,7.0
124,lethem,98,GY,1595985496,83,76.78,3.38,-59.8,4.63
125,lasa,3,IT,1595985108,100,60.01,46.62,10.7,2.33
126,kaeo,100,NZ,1595985497,23,60.01,-35.1,173.78,11.01
127,beloha,0,MG,1595985119,87,60.33,-25.17,45.05,6.93
128,kuzedeyevo,89,RU,1595985497,90,61.75,53.33,87.2,2.95
129,sao jose da coroa grande,52,BR,1595985497,84,75.06,-8.9,-35.15,9.69
130,isangel,40,VU,1595985127,65,78.8,-19.55,169.27,17.22
131,tres barras,67,BR,1595985497,96,58.12,-26.11,-50.32,3.98
132,coquimbo,0,CL,1595985144,81,53.6,-29.95,-71.34,8.05
133,pagudpud,75,PH,1595985497,83,82.4,18.56,120.79,4.7
134,yakima,1,US,1595985497,17,100.99,46.47,-120.67,6.93
135,ostrovnoy,0,RU,1595985497,86,52.45,68.05,39.51,5.88
136,muzhi,48,RU,1595985116,73,50.61,65.37,64.67,4.83
137,ponta do sol,40,PT,1595984925,73,71.6,32.67,-17.1,8.05
138,shasta lake,0,US,1595985497,18,102.99,40.68,-122.37,1.01
139,san patricio,75,MX,1595985041,74,87.8,19.22,-104.7,11.41
140,narsaq,100,GL,1595985155,76,48.2,60.92,-46.05,3.36
141,mandalgovi,100,MN,1595985497,41,70.66,45.76,106.27,11.77
142,ambilobe,32,MG,1595985497,87,70.43,-13.2,49.05,3.67
143,waverly,1,US,1595985498,44,80.6,42.74,-84.62,16.11
144,sterling,1,US,1595985498,65,82.4,39.01,-77.43,4.7
145,hukuntsi,0,BW,1595985498,47,49.03,-24.0,21.75,10.16
146,dobson,40,US,1595985498,94,77.0,36.4,-80.72,3.06
147,laela,77,TZ,1595985498,80,53.76,-8.57,32.05,2.8
148,lincoln,1,US,1595985498,58,86.0,40.8,-96.67,6.93
149,chuy,0,UY,1595985099,82,40.03,-33.7,-53.46,7.54
150,general higinio morinigo,4,PY,1595985498,93,43.57,-25.95,-55.92,4.43
151,paragominas,30,BR,1595985498,66,75.72,-2.97,-47.48,4.88
152,sioux falls,40,US,1595985441,54,84.2,43.55,-96.7,11.41
153,goundi,100,TD,1595985498,92,72.18,9.36,17.37,1.81
154,staryy nadym,100,RU,1595985498,85,50.32,65.61,72.68,9.82
155,kailua,20,US,1595985498,58,86.0,21.4,-157.74,18.34
156,touros,0,BR,1595984952,88,71.6,-5.2,-35.46,3.36
157,vakhrushev,80,RU,1595985498,80,61.9,48.98,142.97,5.37
158,bombay,75,IN,1595985207,100,86.0,19.01,72.85,3.36
159,srednekolymsk,100,RU,1595985164,74,49.17,67.45,153.68,8.32
160,shache,46,CN,1595985118,23,78.12,38.42,77.24,7.02
161,evensk,100,RU,1595985144,94,52.81,61.95,159.23,10.45
162,clyde river,75,CA,1595984929,93,39.2,70.47,-68.59,14.99
163,urumqi,31,CN,1595985471,50,75.2,43.8,87.6,4.47
164,nikolayevka,0,RU,1595985499,83,59.18,53.13,47.2,2.26
165,fukue,75,JP,1595985499,94,82.4,32.69,128.84,10.29
166,mwene-ditu,0,CD,1595985499,38,62.42,-7.0,23.45,3.85
167,bethel,1,US,1595985113,78,77.0,41.37,-73.41,3.36
168,esperance,0,AU,1595985145,93,50.0,-33.87,121.9,6.93
169,yakeshi,44,CN,1595985499,61,77.41,49.28,120.73,14.18
170,torbay,75,CA,1595984997,87,57.0,47.67,-52.73,2.93
171,okhotsk,0,RU,1595985499,57,74.61,59.38,143.3,10.02
172,dvinskoy,35,RU,1595985499,81,58.32,62.15,45.12,2.91
173,coromandel,90,BR,1595985499,68,63.68,-18.47,-47.2,6.04
174,tiksi,100,RU,1595985080,79,44.17,71.69,128.87,9.86
175,hobart,75,AU,1595984883,75,46.4,-42.88,147.33,5.82
176,pingzhuang,25,CN,1595985499,59,77.5,42.04,119.29,9.08
177,am timan,100,TD,1595985002,91,72.93,11.03,20.28,7.76
178,gouyave,75,GD,1595985500,88,78.8,12.16,-61.73,13.67
179,kindu,0,CD,1595985500,48,70.23,-2.95,25.95,0.98
180,seddon,90,AU,1595985443,87,53.01,-37.81,144.89,5.82
181,sibolga,100,ID,1595985116,82,73.72,1.74,98.78,5.77
182,kenai,1,US,1595985160,56,71.6,60.55,-151.26,8.05
183,qandala,0,SO,1595985500,63,86.99,11.47,49.87,3.27
184,nome,90,US,1595985117,93,50.0,64.5,-165.41,17.22
185,winslow,1,US,1595985500,16,96.8,35.02,-110.7,7.38
186,puerto escondido,75,MX,1595985500,70,86.0,15.85,-97.07,4.7
187,camopi,47,GF,1595985500,92,73.6,3.17,-52.32,3.56
188,ilulissat,25,GL,1595984952,81,44.6,69.22,-51.1,5.82
189,san alberto,5,CO,1595985500,76,78.13,7.76,-73.39,4.68
190,saint anthony,20,US,1595985097,47,80.6,45.02,-93.22,6.93
191,mahebourg,6,MU,1595985086,84,66.0,-20.41,57.7,3.0
192,victoria point,20,AU,1595985500,48,66.2,-27.58,153.3,11.41
193,masvingo,0,ZW,1595985500,92,47.52,-20.06,30.83,2.44
194,iqaluit,75,CA,1595985163,55,66.2,63.75,-68.51,14.99
195,hirado,75,JP,1595985501,79,86.0,33.36,129.55,5.82
196,japura,96,ID,1595985501,73,77.7,-0.32,102.35,1.79
197,san francisco,20,US,1595985501,72,69.01,37.77,-122.42,18.34
198,rawson,0,AR,1595985086,64,43.25,-43.3,-65.1,8.97
199,areosa,0,PT,1595985501,93,69.01,41.72,-8.86,8.05
200,tema,40,GH,1595985501,94,75.2,5.67,-0.02,9.17
201,rio gallegos,87,AR,1595985381,86,33.8,-51.62,-69.22,5.82
202,kudahuvadhoo,100,MV,1595985501,77,82.69,2.67,72.89,15.99
203,saldanha,0,ZA,1595985064,81,46.4,-33.01,17.94,1.12
204,belaya gora,100,RU,1595985501,73,46.27,68.53,146.42,12.73
205,san antonio,1,US,1595985476,74,89.01,29.42,-98.49,8.05
206,daoukro,45,CI,1595985501,98,68.85,7.06,-3.96,3.51
207,warrnambool,0,AU,1595985501,88,53.01,-38.38,142.48,4.0
208,rocha,0,UY,1595984927,80,37.58,-34.48,-54.33,6.53
209,vila velha,0,BR,1595985011,83,72.0,-20.33,-40.29,11.41
210,polunochnoye,0,RU,1595985501,79,48.54,60.87,60.42,0.87
211,cullman,1,US,1595985204,78,79.0,34.17,-86.84,8.05
212,baturaja,74,ID,1595985502,74,76.35,-4.13,104.17,1.79
213,okha,0,RU,1595985502,65,73.85,53.57,142.95,11.81
214,fare,77,PF,1595985502,73,80.06,-16.7,-151.02,17.85
215,coahuayana,90,MX,1595985502,94,73.4,18.73,-103.68,2.39
216,kodiak,1,US,1595985119,49,69.8,57.79,-152.41,4.7
217,umm lajj,15,SA,1595985502,82,84.74,25.02,37.27,6.38
218,barquisimeto,66,VE,1595985502,49,89.6,10.07,-69.32,8.05
219,ahipara,100,NZ,1595985013,68,59.22,-35.17,173.17,11.56
220,beinamar,100,TD,1595985502,92,72.05,8.67,15.38,4.54
221,salinopolis,1,BR,1595985126,84,79.36,-0.61,-47.36,13.24
222,nuuk,100,GL,1595985502,100,44.6,64.18,-51.72,3.11
223,coruripe,18,BR,1595985076,87,73.15,-10.13,-36.18,10.67
224,ust-nera,81,RU,1595985502,43,60.12,64.57,143.2,6.55
225,khatanga,0,RU,1595984930,49,61.57,71.97,102.5,5.19
226,estepona,0,ES,1595985502,88,75.2,36.43,-5.15,5.82
227,mopipi,0,BW,1595985502,78,48.36,-21.18,24.88,9.8
228,santa rosa,100,PH,1595985353,88,79.0,14.31,121.11,1.12
229,caranavi,15,BO,1595985503,93,62.26,-15.82,-67.55,1.9
230,asheville,1,US,1595985426,88,73.4,35.6,-82.55,1.57
231,porbandar,73,IN,1595985503,79,83.71,21.64,69.61,14.92
232,kaitangata,100,NZ,1595985078,69,51.01,-46.28,169.85,15.01
233,polovinnoye,86,RU,1595985503,70,56.59,54.79,65.99,3.47
234,estelle,90,US,1595985503,100,78.8,29.85,-90.11,7.36
235,thompson,40,CA,1595984901,56,71.6,55.74,-97.86,6.93
236,port hardy,40,CA,1595984947,67,62.6,50.7,-127.42,13.87
237,bocana de paiwas,97,NI,1595985503,94,72.88,12.79,-85.12,6.17
238,alice springs,0,AU,1595985108,38,59.0,-23.7,133.88,3.36
239,kargil,0,IN,1595985503,53,55.04,34.57,76.1,5.93
240,bengkulu,4,ID,1595985099,85,76.33,-3.8,102.27,3.42
241,coihaique,74,CL,1595985156,74,35.6,-45.58,-72.07,5.82
242,thinadhoo,100,MV,1595985503,76,82.99,0.53,72.93,12.91
243,katsuura,100,JP,1595985091,82,75.0,35.13,140.3,3.0
244,linjiang,2,CN,1595985503,64,80.44,41.81,126.91,1.79
245,anloga,72,GH,1595985503,89,74.57,5.79,0.9,10.83
246,plattsburgh,1,US,1595985237,57,77.0,44.7,-73.45,3.36
247,semnan,0,IR,1595985504,29,76.77,35.57,53.4,0.72
248,chokurdakh,92,RU,1595985110,63,48.81,70.63,147.92,11.16
249,makokou,40,GA,1595985504,91,68.04,0.57,12.86,2.82
250,basco,100,PH,1595985504,77,85.48,20.45,121.97,15.19
251,marsh harbour,55,BS,1595985504,74,82.71,26.54,-77.06,7.65
252,krian,100,ID,1595985504,63,79.11,-7.41,112.58,2.64
253,souillac,9,MU,1595985128,84,66.0,-20.52,57.52,3.0
254,paka,20,MY,1595985504,78,82.4,4.64,103.44,2.24
255,cidreira,67,BR,1595985065,73,47.53,-30.18,-50.21,11.83
256,alta floresta,3,BR,1595985143,42,73.98,-9.88,-56.09,3.42
257,dikson,100,RU,1595985090,80,45.97,73.51,80.55,14.34
258,codrington,29,AU,1595985504,81,53.33,-38.27,141.97,11.95
259,flinders,0,AU,1595985081,62,64.0,-34.58,150.86,8.99
260,mokhsogollokh,100,RU,1595985087,94,53.74,61.47,128.92,3.87
261,truth or consequences,20,US,1595985504,33,87.8,33.13,-107.25,8.05
262,acandi,2,CO,1595985504,83,78.6,8.51,-77.28,3.69
263,lere,100,NG,1595985504,96,68.16,10.39,8.57,2.95
264,namatanai,51,PG,1595985505,69,84.51,-3.67,152.43,4.09
265,sakakah,40,SA,1595985505,15,100.4,29.97,40.21,8.05
266,doha,0,QA,1595985134,75,95.0,25.29,51.53,1.12
267,espinosa,79,BR,1595985505,60,66.16,-14.93,-42.82,6.08
268,kasongo-lunda,0,CD,1595985505,39,65.82,-6.47,16.82,1.34
269,tilichiki,0,RU,1595985127,57,65.28,60.47,166.1,4.0
270,vicksburg,90,US,1595985505,88,84.2,32.35,-90.88,4.7
271,akdagmadeni,0,TR,1595985505,85,56.73,39.66,35.88,2.48
272,malinyi,50,TZ,1595985505,75,65.03,-8.93,36.13,2.53
273,hasaki,75,JP,1595984921,88,73.0,35.73,140.83,14.99
274,cabo san lucas,75,MX,1595984847,83,89.6,22.89,-109.91,14.99
275,basqal,40,AZ,1595985505,88,69.8,40.76,48.39,2.48
276,port lincoln,46,AU,1595985505,73,58.93,-34.73,135.87,10.94
277,boca do acre,5,BR,1595985505,60,77.81,-8.75,-67.4,2.1
278,batagay-alyta,100,RU,1595985506,69,47.07,67.8,130.41,4.76
279,bowen,0,AU,1595985506,42,71.01,-20.02,148.23,2.24
280,caraquet,90,CA,1595985353,100,63.0,47.79,-64.94,6.93
281,taos,75,US,1595985506,38,73.4,36.41,-105.57,19.46
282,camocim,0,BR,1595985506,77,78.01,-2.9,-40.84,13.02
283,nampa,1,US,1595985506,20,93.99,43.54,-116.56,6.93
284,buraydah,0,SA,1595985154,31,91.4,26.33,43.98,3.36
285,port elizabeth,35,ZA,1595985080,82,55.4,-33.92,25.57,8.05
286,kieta,73,PG,1595985185,61,86.2,-6.22,155.63,3.18
287,castro,87,BR,1595985134,78,60.85,-24.79,-50.01,3.51
288,isla vista,1,US,1595985472,60,77.0,34.41,-119.86,6.93
289,karlskoga,9,SE,1595985506,93,53.6,59.33,14.52,3.36
290,tondano,40,ID,1595985506,94,77.0,1.3,124.91,1.12
291,canton,40,CN,1595985506,59,95.0,23.12,113.25,4.47
292,tateyama,75,JP,1595985506,100,75.0,34.98,139.87,10.29
293,mount gambier,75,AU,1595985106,100,46.4,-37.83,140.77,10.29
294,sao filipe,99,CV,1595985101,84,77.18,14.9,-24.5,4.85
295,quepos,75,CR,1595985384,83,73.4,9.42,-84.17,8.05
296,parker,99,US,1595985233,81,80.01,32.77,-97.8,9.95
297,vila franca do campo,40,PT,1595985121,100,71.6,37.72,-25.43,5.82
298,salalah,75,OM,1595985128,94,80.6,17.02,54.09,6.93
299,opuwo,0,NA,1595985507,44,52.81,-18.06,13.84,4.0
300,richards bay,0,ZA,1595985507,86,57.96,-28.78,32.04,7.05
301,kaihua,54,CN,1595985507,78,69.15,23.37,104.28,1.9
302,tautira,75,PF,1595985171,65,82.4,-17.73,-149.15,19.46
303,tuatapere,100,NZ,1595985156,79,51.08,-46.13,167.68,4.9
304,rancho palos verdes,20,US,1595985431,73,70.0,33.74,-118.39,19.46
305,bria,100,CF,1595985507,96,69.24,6.54,21.99,1.63
306,isabela,40,PH,1595985507,74,84.2,6.71,121.97,3.36
307,avera,1,US,1595985507,83,82.4,33.19,-82.53,3.36
308,chiredzi,0,ZW,1595985507,74,55.18,-21.05,31.67,2.55
309,leninogorsk,0,RU,1595985507,83,57.43,54.6,52.46,2.24
310,noumea,75,NC,1595985507,50,78.8,-22.28,166.46,9.17
311,qaanaaq,48,GL,1595985082,72,42.6,77.48,-69.36,4.16
312,hualmay,1,PE,1595985507,83,59.04,-11.1,-77.61,8.23
313,meulaboh,100,ID,1595985045,85,75.29,4.14,96.13,4.38
314,lorengau,0,PG,1595985025,64,85.89,-2.02,147.27,9.22
315,sakaiminato,75,JP,1595985507,94,77.0,35.55,133.23,4.7
316,bhusawal,100,IN,1595985508,84,79.23,21.05,75.77,7.81
317,lompoc,5,US,1595985040,68,66.99,34.64,-120.46,12.75
318,ongandjera,0,NA,1595985508,32,59.45,-17.88,15.07,9.6
319,billings,75,US,1595985508,22,89.6,45.78,-108.5,5.82
320,korla,86,CN,1595985508,67,77.0,41.76,86.15,1.01
321,cadillac,75,US,1595985508,68,72.0,44.25,-85.4,3.36
322,dicabisagan,100,PH,1595985508,78,82.4,17.08,122.42,7.7
323,fredericksburg,75,US,1595985248,100,75.2,38.3,-77.46,3.62
324,tutoia,0,BR,1595985508,81,78.8,-2.76,-42.27,10.49
325,cherskiy,9,RU,1595985138,52,51.12,68.75,161.3,13.18
326,gigmoto,100,PH,1595985508,82,80.31,13.78,124.39,3.67
327,omboue,15,GA,1595985425,83,72.25,-1.57,9.26,7.45
328,namibe,0,AO,1595985163,87,61.84,-15.2,12.15,7.23
329,lakes entrance,0,AU,1595985508,72,57.99,-37.88,147.98,7.36
330,penzance,20,GB,1595985479,87,55.99,50.12,-5.54,8.01
331,lugovoy,29,KZ,1595985508,41,70.38,42.95,72.76,4.12
332,gisborne,89,NZ,1595985508,54,57.99,-38.65,178.0,4.0
333,saint-augustin,61,CA,1595985138,80,55.42,51.23,-58.65,3.87
334,vardo,24,NO,1595985068,93,54.91,70.37,31.11,11.03
335,dandong,60,CN,1595985509,74,78.31,40.13,124.39,5.03
336,shihezi,59,CN,1595985509,34,78.84,44.3,86.03,4.34
337,ati,100,TD,1595985509,70,81.54,13.22,18.34,16.89
338,rio grande,0,BR,1595985261,95,39.0,-32.03,-52.1,11.27
339,siparia,20,TT,1595985509,83,79.0,10.13,-61.5,8.5
340,harper,100,LR,1595985182,83,75.2,4.38,-7.72,8.08
341,karratha,0,AU,1595985032,23,72.63,-20.74,116.85,15.66
342,komsomolskiy,75,UZ,1595984905,50,77.0,40.43,71.72,9.17
343,belmonte,5,BR,1595985171,83,69.8,-15.86,-38.88,2.24
344,margate,75,GB,1595985103,63,60.01,51.38,1.39,1.99
345,aklavik,90,CA,1595985177,100,55.4,68.22,-135.01,9.17
346,naze,75,JP,1595984919,84,87.8,28.37,129.48,9.17
347,vagur,100,FO,1595985510,91,48.6,61.47,-6.81,21.39
348,knysna,68,ZA,1595985510,93,53.6,-34.04,23.05,5.82
349,tigzirt,0,DZ,1595985510,39,82.44,36.89,4.12,4.05
350,xuddur,24,SO,1595985510,81,71.65,4.12,43.89,15.37
351,longyearbyen,95,SJ,1595984938,81,51.8,78.22,15.64,11.41
352,kununurra,0,AU,1595984911,20,73.4,-15.77,128.73,19.46
353,yerbogachen,99,RU,1595985142,85,56.79,61.28,108.01,8.63
354,eucaliptus,0,BO,1595985510,76,43.09,-17.58,-67.52,10.04
355,porto santo,75,PT,1595985511,88,69.8,33.07,-16.34,16.11
356,sitka,75,US,1595984961,77,60.8,57.05,-135.33,10.29
357,kem,97,RU,1595985511,74,56.59,64.96,34.58,7.52
358,walvis bay,0,NA,1595985511,100,54.0,-22.96,14.51,3.36
359,corinto,0,GR,1595985511,47,81.0,37.94,22.96,1.01
360,half moon bay,90,US,1595985411,87,73.99,37.46,-122.43,8.05
361,igrim,3,RU,1595985511,76,48.07,63.19,64.42,4.05
362,sambava,57,MG,1595985511,86,72.95,-14.27,50.17,12.01
363,caravelas,0,BR,1595984972,83,68.85,-17.71,-39.25,2.26
364,selma,1,US,1595985511,22,102.2,36.57,-119.61,7.23
365,dingtao,82,CN,1595985511,74,81.12,35.07,115.56,5.3
366,tabou,100,CI,1595985385,85,75.07,4.42,-7.35,8.12
367,sabang,100,ID,1595985511,71,82.24,5.89,95.32,16.02
368,acapulco,90,MX,1595985059,79,84.2,16.86,-99.89,1.66
369,riyadh,0,SA,1595985236,34,93.2,24.69,46.72,3.36
370,luau,14,AO,1595985512,45,55.09,-10.71,22.22,4.68
371,tura,100,IN,1595985154,94,76.24,25.52,90.22,4.5
372,port hedland,0,AU,1595985185,16,73.4,-20.32,118.57,18.34
373,warrington,68,GB,1595985512,77,59.0,53.39,-2.58,12.75
374,tazmalt,0,DZ,1595985512,64,75.2,36.39,4.4,5.82
375,zabaykalsk,67,RU,1595985512,73,72.82,49.63,117.32,6.26
376,aleppo,0,SY,1595985512,38,80.44,36.25,37.5,10.42
377,marquette,65,US,1595985512,80,70.0,46.53,-87.63,5.3
378,los llanos de aridane,90,ES,1595985173,69,77.0,28.66,-17.92,17.22
379,mizan teferi,100,ET,1595985086,90,61.05,6.98,35.58,2.53
380,northam,46,GB,1595985512,94,57.0,51.03,-4.22,3.0
381,polson,2,US,1595985170,24,91.99,47.69,-114.16,9.33
382,hami,0,CN,1595985512,34,77.59,42.8,93.45,11.65
383,aksu,0,CN,1595985512,26,79.14,41.12,80.26,5.08
384,bako,70,ET,1595985512,87,61.61,5.78,36.57,4.25
385,ucluelet,20,CA,1595985512,82,63.0,48.93,-125.55,6.93
386,manturovo,0,RU,1595985512,89,56.93,58.34,44.76,3.51
387,saint-joseph,78,RE,1595985512,78,71.6,-21.37,55.62,16.11
388,haines junction,100,CA,1595985123,85,51.98,60.75,-137.51,0.63
389,santa rosa de lima,40,SV,1595985513,100,75.2,13.62,-87.89,1.57
390,masumbwe,82,TZ,1595985513,60,63.66,-3.63,32.18,2.35
391,yola,100,NG,1595985513,88,74.82,9.2,12.48,7.34
392,chikhli,98,IN,1595985513,93,74.73,20.35,76.25,6.78
393,saint george,1,US,1595985102,7,104.0,37.1,-113.58,14.99
394,hamilton,1,US,1595984882,57,81.0,39.18,-84.53,3.11
395,puerto plata,75,DO,1595985513,94,82.0,19.79,-70.69,7.4
396,teguldet,100,RU,1595985022,75,60.75,57.31,88.17,5.17
397,awjilah,0,LY,1595985513,67,74.28,29.11,21.29,8.41
398,puerto del rosario,90,ES,1595985113,78,73.4,28.5,-13.86,19.46
399,dickinson,75,US,1595985513,83,82.4,29.46,-95.05,3.36
400,bogande,90,BF,1595985513,77,78.17,12.97,-0.14,11.3
401,sao desiderio,0,BR,1595985513,49,66.6,-12.36,-44.97,4.21
402,shimoda,75,JP,1595985173,100,71.6,34.67,138.95,10.29
403,bukachacha,100,RU,1595985513,67,73.85,52.98,116.92,4.68
404,aras,90,ES,1595985514,73,69.8,42.56,-2.36,8.05
405,mount isa,0,AU,1595985514,24,66.2,-20.73,139.5,12.75
406,comodoro rivadavia,0,AR,1595984892,56,41.0,-45.87,-67.5,13.87
407,yar-sale,75,RU,1595985111,73,52.74,66.83,70.83,10.76
408,kitami,75,JP,1595985490,72,68.0,43.8,143.89,2.24
409,volosovo,20,RU,1595985514,93,59.0,59.43,29.48,4.47
410,dunedin,100,NZ,1595985514,76,50.0,-45.87,170.5,1.01
411,daru,86,PG,1595985187,86,78.46,-9.08,143.21,17.49
412,tete,40,MZ,1595985514,88,62.6,-16.16,33.59,2.57
413,meshchovsk,99,RU,1595985514,89,61.29,54.32,35.28,8.52
414,illapel,0,CL,1595985514,45,57.33,-31.63,-71.17,3.13
415,sung noen,20,TH,1595985514,94,78.8,14.9,101.82,3.36
416,mineiros,0,BR,1595985514,42,69.64,-17.57,-52.55,3.04
417,aykhal,90,RU,1595985060,66,51.8,66.0,111.5,2.24
418,conceicao do araguaia,0,BR,1595985514,45,74.84,-8.26,-49.26,3.24
419,miri,20,MY,1595985514,79,84.2,4.41,114.01,2.24
420,festus,0,US,1595985221,80,82.0,38.22,-90.4,4.43
421,kapit,100,MY,1595985515,95,74.26,2.02,112.93,0.45
422,deputatskiy,64,RU,1595985515,57,46.42,69.3,139.9,11.21
423,hambantota,75,LK,1595985515,100,77.0,6.12,81.12,3.36
424,kungurtug,100,RU,1595985515,86,54.55,50.6,97.52,3.78
425,nor geghi,20,AM,1595985515,46,73.4,40.32,44.58,5.82
426,sergeyevka,6,KZ,1595985515,84,53.6,53.88,67.42,3.94
427,suba,100,PH,1595985515,86,79.02,10.84,121.01,5.73
428,pedini,0,GR,1595985515,82,69.01,39.6,20.84,2.24
429,natitingou,50,BJ,1595985515,96,69.67,10.3,1.38,3.69
430,grand gaube,20,MU,1595985515,83,69.8,-20.01,57.66,4.7
431,eydhafushi,100,MV,1595985515,77,82.62,5.1,73.07,17.34
432,puerto carreno,100,CO,1595985515,86,78.17,6.19,-67.49,4.05
433,eregli,0,TR,1595985515,50,67.41,37.51,34.05,0.6
434,oktyabrskoye,100,RU,1595985177,93,62.6,43.06,44.74,8.95
435,luderitz,0,NA,1595985515,82,55.4,-26.65,15.16,9.17
436,lahij,3,YE,1595985515,70,81.23,13.17,44.58,2.13
437,kiama,0,AU,1595985515,62,64.0,-34.68,150.87,8.99
438,juba,90,SS,1595985515,91,70.05,4.85,31.58,2.04
439,monster,0,NL,1595985515,69,62.01,52.03,4.17,11.99
440,laguna,1,US,1595985042,22,100.0,38.42,-121.42,8.05
441,aloleng,99,PH,1595985516,69,84.45,16.13,119.78,1.21
442,chute-aux-outardes,90,CA,1595985516,100,59.0,49.12,-68.4,11.41
443,asyut,0,EG,1595985164,41,78.8,27.18,31.18,8.05
444,gorontalo,100,ID,1595985273,69,82.87,0.54,123.06,4.83
445,pitimbu,75,BR,1595985516,88,73.4,-7.47,-34.81,5.82
446,tambura,100,SS,1595985516,95,68.49,5.6,27.47,3.69
447,angoche,15,MZ,1595985516,83,68.36,-16.23,39.91,9.55
448,fairbanks,90,US,1595985077,77,60.8,64.84,-147.72,6.93
449,antofagasta,9,CL,1595985422,81,53.6,-23.65,-70.4,3.36
450,cusuna,100,HN,1595985516,85,77.77,15.85,-85.23,7.25
451,makakilo city,40,US,1595985516,45,87.8,21.35,-158.09,10.29
452,college,90,US,1595984955,63,60.8,64.86,-147.8,12.21
453,sao gabriel da cachoeira,5,BR,1595985516,96,73.36,-0.13,-67.09,1.77
454,ilhabela,26,BR,1595985517,60,75.16,-23.78,-45.36,3.53
455,ust-tsilma,36,RU,1595985517,74,51.71,65.44,52.15,4.12
456,horsham,84,GB,1595985517,76,54.0,51.06,-0.33,3.36
457,tampa,90,US,1595985297,94,78.8,27.95,-82.46,4.7
458,tiarei,75,PF,1595984998,65,82.4,-17.53,-149.33,19.46
459,sinnar,100,SD,1595985517,79,75.38,13.57,33.57,15.75
460,kahului,40,US,1595985039,45,87.8,20.89,-156.47,24.16
461,stornoway,96,GB,1595985517,87,51.8,58.21,-6.39,11.41
462,shalinskoye,0,RU,1595985517,86,60.31,55.72,93.76,4.29
463,saint-georges,75,GD,1595985517,88,78.8,12.06,-61.75,9.4
464,dhidhdhoo,100,MV,1595985168,79,81.27,6.88,73.1,17.07
465,bataipora,90,BR,1595985517,66,69.75,-22.3,-53.27,8.9
466,mindelo,20,CV,1595985517,78,78.8,16.89,-24.98,8.05
467,hudson bay,0,CA,1595985517,61,75.85,52.85,-102.38,3.31
468,hobyo,0,SO,1595985066,81,77.04,5.35,48.53,18.66
469,mancio lima,0,BR,1595985517,75,75.4,-7.61,-72.9,1.01
470,nizamabad,100,IN,1595985517,86,78.04,18.67,78.12,3.83
471,ponta delgada,40,PT,1595985165,100,71.6,37.73,-25.67,5.82
472,mecca,2,SA,1595985166,58,83.64,21.43,39.83,3.06
473,kavieng,23,PG,1595985003,64,85.48,-2.57,150.8,8.23
474,voznesenye,100,RU,1595985517,94,63.12,61.01,35.48,8.81
475,bedesa,86,ET,1595985518,90,58.3,8.9,40.78,5.75
476,antsohihy,85,MG,1595985518,71,74.21,-14.88,47.99,2.26
477,omsukchan,100,RU,1595985518,83,54.05,62.53,155.8,10.78
478,vilhena,33,BR,1595985518,46,72.82,-12.74,-60.15,1.45
479,zhezkazgan,0,KZ,1595985518,67,59.0,47.8,67.71,6.71
480,ubauro,24,PK,1595985518,65,87.58,28.17,69.73,13.47
481,talavera de la reina,6,ES,1595985518,38,78.04,39.96,-4.83,1.57
482,belyy yar,0,RU,1595985518,82,62.6,53.6,91.39,1.99
483,entebbe,74,UG,1595985289,63,71.67,0.06,32.45,2.35
484,bubaque,88,GW,1595985518,83,79.48,11.28,-15.83,18.19
485,port augusta,0,AU,1595985518,48,60.8,-32.5,137.77,9.17
486,nanyamba,20,TZ,1595985518,94,68.0,-10.68,39.83,11.41
487,bad langensalza,0,DE,1595985518,76,57.2,51.1,10.65,8.05
488,igarka,0,RU,1595985518,72,55.17,67.47,86.58,8.63
489,tiznit,0,MA,1595985518,38,75.94,29.58,-9.5,1.19
490,qui nhon,35,VN,1595985518,66,85.41,13.77,109.23,4.12
491,trebisacce,0,IT,1595985518,44,73.99,39.87,16.53,5.5
492,biskamzha,99,RU,1595985519,82,60.94,53.45,89.53,1.68
493,altus,1,US,1595985519,58,86.0,34.64,-99.33,9.17
494,port keats,3,AU,1595985519,21,76.12,-14.25,129.55,15.08
495,monrovia,98,LR,1595985157,79,76.14,6.3,-10.8,6.98
496,copainala,75,MX,1595985519,69,82.4,17.08,-93.2,6.93
497,damavand,0,IR,1595985519,18,84.2,35.72,52.06,6.93
498,chake chake,89,TZ,1595985519,80,75.6,-5.25,39.77,12.3
499,qasigiannguit,48,GL,1595985519,81,42.8,68.82,-51.19,4.7
500,chabahar,20,IR,1595985519,83,84.2,25.29,60.64,6.93
501,dingle,100,PH,1595985143,80,82.11,11.0,122.67,4.32
502,bathsheba,75,BB,1595985094,94,77.0,13.22,-59.52,8.05
503,narrabri,40,AU,1595985519,72,60.01,-30.32,149.78,3.36
504,marinette,40,US,1595985519,64,75.2,45.1,-87.63,3.36
505,berhida,57,HU,1595985519,65,75.0,47.11,18.13,4.0
506,conceicao da barra,0,BR,1595985519,83,70.38,-18.59,-39.73,5.64
507,pangnirtung,98,CA,1595985126,80,50.72,66.15,-65.71,1.9
508,garowe,0,SO,1595985519,62,76.73,8.41,48.48,14.07
509,wenling,100,CN,1595985520,58,84.99,28.37,121.36,5.08
510,prestea,0,GH,1595985520,94,70.5,5.43,-2.14,2.46
511,lawton,90,US,1595985331,78,84.2,34.61,-98.39,10.29
512,marsa matruh,0,EG,1595985146,88,73.4,31.35,27.25,5.82
513,siverek,0,TR,1595985520,39,80.6,37.76,39.32,4.7
514,ardesen,75,TR,1595985520,88,75.2,41.19,40.99,4.7
515,athabasca,5,CA,1595985149,72,79.21,54.72,-113.29,5.12
516,makasar,0,ID,1595985520,78,78.8,-5.14,119.42,3.36
517,mitsamiouli,100,KM,1595985520,86,75.0,-11.38,43.28,17.47
518,zhangjiakou,100,CN,1595985520,68,72.57,40.81,114.88,2.37
519,cap malheureux,20,MU,1595985520,83,69.8,-19.98,57.61,4.7
520,naryan-mar,0,RU,1595985520,84,47.14,67.67,53.09,9.31
521,filadelfia,75,US,1595985382,48,88.0,39.95,-75.16,9.17
522,yeppoon,0,AU,1595985520,40,68.0,-23.13,150.73,17.22
523,wanning,4,CN,1595985520,77,85.37,18.8,110.4,7.43
524,shush,6,IR,1595985520,25,94.51,32.19,48.24,5.99
525,taltal,37,CL,1595985520,64,59.11,-25.4,-70.48,4.29
526,egvekinot,96,RU,1595985141,86,45.54,66.32,-179.17,4.03
527,misratah,0,LY,1595985521,78,77.34,32.38,15.09,6.93
528,post falls,1,US,1595985521,21,96.01,47.72,-116.95,5.82
529,arica,90,CL,1595985285,77,59.0,-18.48,-70.3,5.82
530,porto novo,20,BJ,1595985521,94,75.2,6.5,2.6,5.82
531,havelock,75,US,1595985112,78,84.99,34.88,-76.9,5.82
532,roebourne,0,AU,1595985521,24,72.05,-20.78,117.13,15.1
533,twin falls,1,US,1595985521,28,84.2,42.56,-114.46,6.93
534,lixourion,0,GR,1595985521,64,75.2,38.2,20.43,2.8
535,raahe,100,FI,1595985521,88,62.6,64.68,24.48,1.12
536,lensk,100,RU,1595985521,92,52.77,60.73,114.93,7.58
537,vao,100,NC,1595985521,80,71.33,-22.67,167.48,30.15
538,mitu,70,CO,1595985521,96,72.82,1.2,-70.17,2.48
539,severobaykalsk,0,RU,1595985128,70,62.4,55.65,109.32,2.1
540,tromso,71,NO,1595985521,72,59.0,69.65,18.96,24.16
541,nokaneng,0,BW,1595985522,49,49.15,-19.67,22.27,6.58
542,kaniama,30,CD,1595985522,46,61.7,-7.57,24.18,2.71
543,gorom-gorom,85,BF,1595985522,51,86.16,14.44,-0.24,8.46
544,pochutla,75,MX,1595985183,70,86.0,15.74,-96.47,4.7
545,sioux lookout,75,CA,1595985165,64,69.8,50.1,-91.92,9.17
546,ukiah,1,US,1595985114,13,96.8,39.15,-123.21,16.11
547,coolum beach,0,AU,1595985522,55,68.0,-26.53,153.1,4.0
548,berlevag,34,NO,1595984924,82,56.91,70.86,29.09,9.73
549,yambio,100,SS,1595985522,96,65.35,4.57,28.4,2.46
550,cooma,75,AU,1595985522,87,46.4,-36.23,149.13,9.17
551,qaqortoq,99,GL,1595985029,76,48.2,60.72,-46.03,3.36
552,wuwei,55,CN,1595985522,23,82.02,37.93,102.64,8.99
553,muros,2,ES,1595985094,76,66.0,42.78,-9.06,3.0
554,superior,1,US,1595985522,56,77.0,46.72,-92.1,5.82
555,joensuu,100,FI,1595985522,88,63.0,62.6,29.76,6.93
556,lerwick,100,GB,1595985425,100,53.6,60.15,-1.15,18.34
557,bom jesus,0,BR,1595985522,46,68.61,-9.07,-44.36,2.91
558,saint-pierre,90,RE,1595985158,77,69.8,-21.34,55.48,10.29
559,todos santos,100,MX,1595985522,81,77.0,23.45,-110.22,1.01
560,alofi,75,NU,1595985034,88,71.6,-19.06,-169.92,23.04
561,beringovskiy,20,RU,1595985134,59,62.33,63.05,179.32,9.93
562,san quintin,1,MX,1595985162,74,69.75,30.48,-115.95,16.98
563,padilla,40,CO,1595985523,69,75.2,3.22,-76.31,5.82
564,te anau,100,NZ,1595985523,83,49.26,-45.42,167.72,1.45
565,milkovo,100,RU,1595985523,48,73.99,54.72,158.62,2.26
