,City,Cloudiness,Country,Date,Humidity,Temp,Lat,Lng,Wind Speed
0,Ribeira Grande,0,PT,1596434400,84,71.82,38.5167,-28.7,11.79
1,Berlevåg,95,NO,1596434400,90,48.31,70.8578,29.0864,9.53
2,Punta Arenas,100,CL,1596434400,76,39.9,-53.15,-70.9167,19.62
3,Mnogovershinnyy,97,RU,1596434400,69,56.91,53.9353,139.9242,7.67
4,Bathsheba,66,BB,1596434400,80,81.59,13.2167,-59.5167,12.01
5,Katsuura,12,JP,1596434400,68,85.05,35.1333,140.3,6.82
6,Mataura,99,NZ,1596434400,83,53.06,-46.1927,168.8643,0.94
7,Texarkana,43,US,1596434400,95,70.92,33.4251,-94.0477,4.5
8,Meulaboh,99,ID,1596434400,74,85.12,4.1363,96.1285,5.37
9,Qaanaaq,100,GL,1596434400,87,36.27,77.484,-69.3632,6.93
10,Yellowknife,10,CA,1596434400,63,73.02,62.456,-114.3525,9.71
11,George Town,54,MY,1596434400,64,87.89,5.4112,100.3354,11.65
12,Camacha,33,PT,1596434400,78,67.96,33.0833,-16.3333,18.88
13,Albany,6,US,1596434400,88,72.68,42.6001,-73.9662,3.58
14,Kapaa,77,US,1596434400,74,79.74,22.0752,-159.319,16.17
15,Dandong,100,CN,1596434400,82,81.81,40.1292,124.3947,12.17
16,Kwekwe,0,ZW,1596434400,79,51.71,-18.9281,29.8149,7.54
17,Barrow,46,US,1596434400,81,35.58,71.2906,-156.7887,10.94
18,Saint Johnsbury,77,US,1596434400,86,71.37,44.4192,-72.0151,4.61
19,Kavieng,70,PG,1596434400,73,84.78,-2.5744,150.7967,8.59
20,Bredasdorp,0,ZA,1596434400,89,50.65,-34.5322,20.0403,5.73
21,Visnes,72,NO,1596434400,80,55.83,59.3556,5.2242,14.16
22,Troitsko-Pechorsk,100,RU,1596434400,91,54.54,62.7084,56.1964,10.11
23,Gravelbourg,45,CA,1596434400,44,70.23,49.8834,-106.5512,14.09
24,Cidreira,13,BR,1596434400,82,61.38,-30.1811,-50.2056,2.86
25,Samarai,91,PG,1596434400,85,77.74,-10.6167,150.6667,15.03
26,Rikitea,100,PF,1596434400,81,72.95,-23.1203,-134.9692,17.69
27,Iqaluit,33,CA,1596434400,68,49.96,63.7506,-68.5145,11.18
28,Vaini,85,TO,1596434400,90,74.62,-21.2,-175.2,18.32
29,Nhulunbuy,92,AU,1596434400,64,79.83,-12.2333,136.7667,13.4
30,Harper,94,LR,1596434400,79,72.25,4.375,-7.7169,2.33
31,Ushuaia,69,AR,1596434400,69,38.5,-54.8,-68.3,9.6
32,Esperance,88,AU,1596434400,78,59.43,-33.8667,121.9,24.87
33,Port Alfred,0,ZA,1596434400,24,70.74,-33.5906,26.891,16.6
34,Camopi,56,GF,1596434400,97,71.19,3.1655,-52.3158,1.41
35,Kokstad,0,ZA,1596434400,37,54.25,-30.5472,29.4241,4.52
36,Airai,31,TL,1596434400,54,72.01,-8.9266,125.4092,3.22
37,Port Blair,100,IN,1596434400,79,83.61,11.6667,92.75,28.05
38,Castro,1,BR,1596434400,96,48.65,-24.7911,-50.0119,3.09
39,Bridlington,80,GB,1596434400,82,55.42,54.0831,-0.1919,7.58
40,Dakoro,100,NE,1596434400,78,78.03,14.5106,6.765,13.24
41,Upernavik,67,GL,1596434400,73,43.57,72.7868,-56.1549,2.46
42,New Norfolk,18,AU,1596434400,67,45.99,-42.7826,147.0587,9.17
43,Hobart,21,AU,1596434400,49,48.94,-42.8794,147.3294,10.78
44,Inongo,58,CD,1596434400,89,69.73,-1.95,18.2667,3.44
45,Quatre Cocos,74,MU,1596434400,66,69.55,-20.2078,57.7625,20.42
46,Pevek,100,RU,1596434400,91,38.5,69.7008,170.3133,3.0
47,Thompson,19,CA,1596434400,71,61.18,55.7435,-97.8558,2.26
48,Ancud,69,CL,1596434400,87,50.76,-41.8697,-73.8203,14.23
49,Jutaí,5,BR,1596434400,62,71.65,-5.1833,-68.9,0.89
50,Mar del Plata,81,AR,1596434400,86,48.04,-38.0023,-57.5575,5.73
51,Nikolskoye,95,RU,1596434400,87,59.92,59.7035,30.7861,6.51
52,Vinh,100,VN,1596434400,76,88.21,18.6667,105.6667,5.41
53,Isangel,21,VU,1596434400,61,72.59,-19.55,169.2667,10.51
54,Grindavik,91,IS,1596434400,89,48.4,63.8424,-22.4338,15.41
55,North Bay,95,CA,1596434400,91,57.6,46.3168,-79.4663,11.95
56,Pacific Grove,0,US,1596434400,86,59.04,36.6177,-121.9166,5.79
57,Hermanus,1,ZA,1596434400,83,57.27,-34.4187,19.2345,11.45
58,Santa Catarina,0,BR,1596434400,97,49.84,-27.0,-50.0,0.72
59,Faanui,56,PF,1596434400,76,78.6,-16.4833,-151.75,10.07
60,Fairbanks,64,US,1596434400,73,58.93,64.8378,-147.7164,1.92
61,Kavaratti,93,IN,1596434400,81,82.67,10.5669,72.642,24.36
62,Norman Wells,80,CA,1596434400,55,74.41,65.282,-126.8329,2.17
63,Arraial do Cabo,1,BR,1596434400,64,67.93,-22.9661,-42.0278,5.1
64,Trat,95,TH,1596434400,81,83.52,12.5,102.5,13.94
65,Hithadhoo,100,MV,1596434400,74,83.64,-0.6,73.0833,12.53
66,Thinadhoo,100,MV,1596434400,75,83.41,0.5333,72.9333,10.29
67,Jiangyou,8,CN,1596434400,69,87.31,31.7667,104.7167,5.55
68,Kahului,53,US,1596434400,59,78.26,20.8947,-156.47,12.37
69,Tasiilaq,97,GL,1596434400,81,43.54,65.6145,-37.6368,1.16
70,Rawson,79,AR,1596434400,58,50.2,-43.3002,-65.1023,22.41
71,Bethel,40,US,1596434400,85,75.04,41.3712,-73.414,6.2
72,Ugoofaaru,99,MV,1596434400,79,82.54,5.6667,73.0,14.65
73,Gurmatkāl,100,IN,1596434400,84,75.92,16.8667,77.4,14.07
74,Cape Town,58,ZA,1596434400,86,58.82,-33.9258,18.4232,5.79
75,Byron Bay,21,AU,1596434400,64,67.05,-28.65,153.6167,8.66
76,Avarua,22,CK,1596434400,65,70.84,-21.2078,-159.775,8.68
77,Hede,55,CN,1596434400,78,91.15,33.7681,120.2517,11.52
78,Lorengau,72,PG,1596434400,77,83.84,-2.0226,147.2712,11.72
79,Bluff,100,NZ,1596434400,82,50.74,-46.6,168.3333,2.24
80,Barstow,1,US,1596434400,11,86.88,34.8986,-117.0228,18.3
81,Lázaro Cárdenas,98,MX,1596434400,83,82.51,17.9583,-102.2,3.36
82,Constantine,10,DZ,1596434400,49,79.29,36.365,6.6147,3.53
83,Ambilobe,20,MG,1596434400,57,84.34,-13.2,49.05,11.74
84,Hofn,99,IS,1596434400,91,50.97,64.2539,-15.2082,1.95
85,Puerto Ayora,41,EC,1596434400,92,67.68,-0.7393,-90.3518,8.75
86,Atuona,10,PF,1596434400,75,78.75,-9.8,-139.0333,17.02
87,Santiago del Estero,80,AR,1596434400,51,72.19,-27.7951,-64.2615,5.5
88,Atambua,22,ID,1596434400,53,81.52,-9.1061,124.8925,1.05
89,Province of Groningen,100,NL,1596434400,93,56.28,53.25,6.75,4.83
90,Sitka,92,US,1596434400,86,56.62,57.0531,-135.33,1.41
91,La Ronge,11,CA,1596434400,67,67.77,55.1001,-105.2842,8.52
92,Mitchell,13,US,1596434400,85,61.38,43.7094,-98.0298,6.46
93,Kaitangata,52,NZ,1596434400,86,48.74,-46.2817,169.8464,2.66
94,Guaratinga,12,BR,1596434400,89,61.66,-16.5667,-39.5667,5.21
95,Belaya Gora,99,RU,1596434400,43,63.54,68.5333,146.4167,10.8
96,Lagoa,1,PT,1596434400,76,71.2,39.05,-27.9833,5.17
97,Rønne,96,DK,1596434400,93,61.34,55.1009,14.7066,12.35
98,Bull Savanna,99,JM,1596434400,83,78.3,17.8868,-77.5902,3.0
99,Itaituba,53,BR,1596434400,56,76.42,-4.2761,-55.9836,0.67
100,Saint George,1,US,1596434400,11,88.66,37.1041,-113.5841,1.05
101,Virginia Beach,1,US,1596434400,80,79.65,36.8529,-75.978,13.71
102,Tessalit,79,ML,1596434400,49,85.44,20.1986,1.0114,27.11
103,Bambous Virieux,75,MU,1596434400,67,69.58,-20.3428,57.7575,20.15
104,Caravelas,4,BR,1596434400,80,68.99,-17.7125,-39.2481,7.67
105,Geraldton,40,AU,1596434400,63,60.26,-28.7667,114.6,18.9
106,Naze,28,JP,1596434400,73,85.21,28.3667,129.4833,11.63
107,Kadnikov,0,RU,1596434400,79,59.72,59.5022,40.338,4.25
108,Avera,1,US,1596434400,77,79.27,33.194,-82.5271,8.86
109,Severo-Kuril'sk,99,RU,1596434400,89,58.05,50.6789,156.125,11.43
110,Beloha,0,MG,1596434400,67,67.01,-25.1667,45.05,16.2
111,Olafsvik,36,IS,1596434400,87,46.83,64.8945,-23.7142,10.96
112,Gornyye Klyuchi,100,RU,1596434400,95,73.15,45.25,133.5,1.14
113,Hilo,44,US,1596434400,62,75.52,19.7297,-155.09,3.31
114,Salalah,32,OM,1596434400,80,82.74,17.0151,54.0924,4.16
115,West Bay,100,KY,1596434400,77,84.22,19.3667,-81.4167,5.91
116,Busselton,20,AU,1596434400,68,56.23,-33.65,115.3333,9.69
117,Derzhavīnsk,0,KZ,1596434400,36,88.34,51.1,66.3167,12.1
118,Comodoro Rivadavia,100,AR,1596434400,65,49.82,-45.8667,-67.5,20.07
119,Palāsa,100,IN,1596434400,61,93.58,18.7667,84.4167,2.48
120,Pacov,100,CZ,1596434400,95,61.07,49.4708,15.0017,8.23
121,Batemans Bay,100,AU,1596434400,54,63.37,-35.7167,150.1833,3.4
122,Luanda,87,AO,1596434400,83,70.95,-8.8368,13.2343,0.94
123,Itambé,41,BR,1596434400,91,58.93,-15.245,-40.6244,1.14
124,Almeirim,52,BR,1596434400,76,76.35,-1.5233,-52.5817,3.53
125,Rājāpur,77,IN,1596434400,55,98.89,25.3833,81.15,12.8
126,Carnarvon,27,AU,1596434400,59,67.89,-24.8667,113.6333,16.96
127,Butaritari,77,KI,1596434400,72,82.85,3.0707,172.7902,17.56
128,La Palma,1,US,1596434400,66,74.46,33.8464,-118.0467,6.06
129,Kennett,28,US,1596434400,92,69.58,36.2362,-90.0556,6.33
130,Rongcheng,55,CN,1596434400,68,99.81,30.634,117.8517,3.2
131,Nur,94,PL,1596434400,76,65.37,52.6683,22.3221,9.78
132,Yar-Sale,100,RU,1596434400,76,72.55,66.8333,70.8333,20.67
133,Abaza,98,RU,1596434400,67,67.51,52.655,90.0928,7.05
134,Moose Factory,42,CA,1596434400,98,45.05,51.2585,-80.6094,5.01
135,Kaka,0,TM,1596434400,14,94.26,37.3482,59.6143,4.7
136,Nemuro,48,JP,1596434400,79,71.24,43.3236,145.575,15.01
137,Chokurdakh,100,RU,1596434400,57,51.84,70.6333,147.9167,5.26
138,Uddevalla,31,SE,1596434400,74,60.19,58.3478,11.9424,13.31
139,Vulturu,11,RO,1596434400,50,72.59,45.6167,27.4167,3.87
140,Otradnoye,95,RU,1596434400,88,59.29,59.7775,30.8181,6.46
141,Rybnik,94,PL,1596434400,76,71.42,50.0971,18.5418,6.62
142,Souillac,84,MU,1596434400,67,69.4,-20.5167,57.5167,19.95
143,Xai-Xai,0,MZ,1596434400,79,63.79,-25.0519,33.6442,3.22
144,Apateu,0,RO,1596434400,74,69.15,46.6167,21.7833,4.68
145,Aksu,12,CN,1596434400,20,90.54,41.1231,80.2644,1.7
146,Jamestown,94,US,1596434400,95,63.9,42.097,-79.2353,7.78
147,Mindelo,10,CV,1596434400,84,77.56,16.8901,-24.9804,8.12
148,Waingapu,31,ID,1596434400,55,82.26,-9.6567,120.2641,11.77
149,Vostok,100,RU,1596434400,85,69.08,46.4856,135.8833,4.34
150,Wamba,100,NG,1596434400,96,70.79,8.9333,8.6,4.5
151,Puerto Nariño,18,CO,1596434400,87,72.97,-3.7703,-70.3831,0.45
152,Kudahuvadhoo,100,MV,1596434400,77,83.28,2.6708,72.8944,13.35
153,Port Elizabeth,0,ZA,1596434400,48,71.28,-33.918,25.5701,14.85
154,Tuatapere,97,NZ,1596434400,73,52.39,-46.1333,167.6833,1.95
155,Codrington,90,AU,1596434400,66,50.92,-38.2667,141.9667,14.36
156,Port Hardy,83,CA,1596434400,97,58.98,50.6996,-127.4199,4.92
157,Necochea,72,AR,1596434400,76,45.57,-38.5473,-58.7368,6.89
158,Dubbo,100,AU,1596434400,56,60.76,-32.25,148.6167,5.32
159,Lebu,100,CL,1596434400,95,50.47,-37.6167,-73.65,9.98
160,Longonjo,41,AO,1596434400,44,51.28,-12.9067,15.2533,3.89
161,Okhotsk,3,RU,1596434400,57,66.22,59.3833,143.3,10.92
162,Cherskiy,100,RU,1596434400,85,52.39,68.75,161.3,6.49
163,Washington,17,US,1596434400,40,70.68,47.5001,-120.5015,6.29
164,Fortuna,2,US,1596434400,89,59.45,40.5982,-124.1573,3.36
165,Diamantino,0,BR,1596434400,41,69.42,-14.4086,-56.4461,3.76
166,Escanaba,88,US,1596434400,74,59.18,45.7453,-87.0646,7.0
167,Marzuq,99,YE,1596434400,58,80.37,14.4,46.4667,5.19
168,Den Helder,94,NL,1596434400,83,60.49,52.9599,4.7593,11.01
169,Saint-Philippe,91,RE,1596434400,65,66.94,-21.3585,55.7679,14.7
170,Clyde River,95,CA,1596434400,90,46.4,70.4692,-68.5914,11.07
171,Cabo San Lucas,4,MX,1596434400,65,82.65,22.8909,-109.9124,11.74
172,Ahipara,14,NZ,1596434400,78,59.92,-35.1667,173.1667,6.96
173,Mahébourg,76,MU,1596434400,67,69.53,-20.4081,57.7,20.15
174,Lata,100,PT,1596434400,93,58.89,40.1629,-8.3327,2.71
175,Solton,22,RU,1596434400,61,76.32,52.8429,86.4787,13.13
176,Baní,96,DO,1596434400,84,79.18,18.2833,-70.3333,8.34
177,Sioux Lookout,14,CA,1596434400,83,51.24,50.1001,-91.917,1.88
178,Longyearbyen,48,SJ,1596434400,88,49.87,78.2186,15.6401,2.26
179,Arlit,100,NE,1596434400,45,89.15,18.7369,7.3853,16.22
180,Tuktoyaktuk,71,CA,1596434400,91,47.66,69.4541,-133.0374,8.68
181,Tura,5,IN,1596434400,60,94.48,25.5198,90.2201,0.87
182,Dunedin,74,NZ,1596434400,83,50.67,-45.8742,170.5036,3.15
183,Iringa,5,TZ,1596434400,70,62.35,-7.7667,35.7,12.93
184,Ankpa,100,NG,1596434400,91,70.72,7.3706,7.6253,7.76
185,Megion,0,RU,1596434400,53,85.15,61.0296,76.1136,10.18
186,Abu Kamal,0,SY,1596434400,37,91.45,34.4506,40.9171,11.5
187,Khandagayty,47,RU,1596434400,50,66.22,50.7333,92.05,3.56
188,São João da Barra,0,BR,1596434400,74,64.45,-21.6403,-41.0511,7.23
189,Buchanan,96,LR,1596434400,83,74.32,5.8808,-10.0467,4.52
190,Taoudenni,11,ML,1596434400,19,99.75,22.6783,-3.9836,7.0
191,Laguna,4,US,1596434400,44,73.51,38.421,-121.4238,5.86
192,Rio Grande,71,BR,1596434400,91,62.8,-32.035,-52.0986,4.61
193,Russell,43,US,1596434400,80,76.28,32.3502,-85.1999,3.2
194,Saskylakh,24,RU,1596434400,45,76.68,71.9167,114.0833,5.1
195,Rocha,99,UY,1596434400,97,57.36,-34.4833,-54.3333,1.57
196,Ambulu,62,ID,1596434400,62,82.54,-8.345,113.6058,8.68
197,Beira,54,MZ,1596434400,85,68.9,-19.8436,34.8389,9.69
198,Tarakan,3,ID,1596434400,72,83.43,3.3,117.6333,7.29
199,Broome,1,US,1596434400,66,69.89,42.2506,-75.833,9.86
200,Faya,61,SA,1596434400,79,68.23,18.3851,42.4509,7.83
201,Ostrovnoy,100,RU,1596434400,81,51.94,68.0531,39.5131,16.6
202,Mehamn,95,NO,1596434400,90,48.49,71.0357,27.8492,7.67
203,Carballo,97,ES,1596434400,83,59.23,43.213,-8.691,3.0
204,Nanjangūd,87,IN,1596434400,84,74.7,12.1197,76.6828,15.14
205,Yumen,57,CN,1596434400,13,87.78,40.2833,97.2,17.52
206,Novyy Urgal,99,RU,1596434400,63,70.2,51.0736,132.5642,8.01
207,Tynda,100,RU,1596434400,60,66.4,55.1667,124.7167,9.8
208,Ilulissat,7,GL,1596434400,83,40.3,69.2167,-51.1,3.24
209,Mallow,21,IE,1596434400,91,49.1,52.1333,-8.6333,4.56
210,Buraidah,0,SA,1596434400,31,102.07,26.326,43.975,12.8
211,Terme,26,TR,1596434400,77,73.29,41.2092,36.9739,5.06
212,Itambacuri,3,BR,1596434400,89,56.95,-18.0311,-41.685,2.42
213,Dalvik,95,IS,1596434400,89,49.39,65.9702,-18.5286,1.41
214,Deputatsky,56,RU,1596434400,57,57.06,69.3,139.9,8.81
215,Paita,5,PE,1596434400,88,61.66,-5.0892,-81.1144,7.94
216,Solano,1,US,1596434400,51,70.18,38.2333,-121.9511,11.7
217,Lavrentiya,94,RU,1596434400,67,47.66,65.5833,-171.0,11.72
218,Rumford,81,US,1596434400,92,71.42,44.5537,-70.5509,3.44
219,São Filipe,17,CV,1596434400,85,78.22,14.8961,-24.4956,10.6
220,Poum,4,NC,1596434400,73,70.21,-20.2333,164.0167,18.75
221,Teya,68,RU,1596434400,41,78.15,60.3778,92.6267,5.37
222,Wanaka,92,NZ,1596434400,77,50.54,-44.7,169.15,3.74
223,Bilibino,96,RU,1596434400,50,55.45,68.0546,166.4372,2.35
224,Guerrero Negro,46,MX,1596434400,72,72.63,27.9769,-114.0611,11.95
225,Ouallam,100,NE,1596434400,74,79.3,14.3188,2.0866,6.8
226,Ponta do Sol,13,PT,1596434400,75,67.87,32.6667,-17.1,4.54
227,San Policarpo,100,PH,1596434400,71,86.79,12.1791,125.5072,7.4
228,Kawalu,94,ID,1596434400,65,85.66,-7.3817,108.2082,5.19
229,Uray,93,RU,1596434400,69,72.72,60.1247,64.7758,8.25
230,Torbay,19,CA,1596434400,97,57.38,47.6666,-52.7314,6.67
231,Krasnosel'kup,50,RU,1596434400,53,75.07,65.7,82.4667,7.45
232,Chapais,95,CA,1596434400,99,60.04,49.7834,-74.8492,10.45
233,Matara,100,LK,1596434400,76,83.41,5.9485,80.5353,12.75
234,Kununurra,94,AU,1596434400,23,90.3,-15.7667,128.7333,5.37
235,Paamiut,100,GL,1596434400,95,44.62,61.994,-49.6678,4.94
236,Barguzin,94,RU,1596434400,79,65.48,53.6167,109.6167,7.43
237,Tierralta,97,CO,1596434400,89,77.11,8.1736,-76.0592,4.45
238,Saldanha,5,ZA,1596434400,87,59.02,-33.0117,17.9442,5.12
239,Lüderitz,0,NA,1596434400,34,63.66,-26.6481,15.1594,8.03
240,Arivonimamo,40,MG,1596434400,67,54.05,-19.0167,47.1833,17.81
241,Port-Gentil,100,GA,1596434400,75,74.62,-0.7193,8.7815,8.84
242,Lake Cowichan,72,CA,1596434400,79,62.22,48.825,-124.0546,3.27
243,Manakara,92,MG,1596434400,78,68.59,-22.1333,48.0167,6.93
244,Iracoubo,88,GF,1596434400,85,76.6,5.4802,-53.2011,7.07
245,Srednekolymsk,60,RU,1596434400,45,65.57,67.45,153.6833,9.48
246,Tual,75,ID,1596434400,82,77.95,-5.6667,132.75,16.55
247,Khatanga,100,RU,1596434400,62,68.31,71.9667,102.5,5.99
248,Hūn,0,LY,1596434400,29,83.3,29.1268,15.9477,1.68
249,Anūppur,73,IN,1596434400,63,90.39,23.1,81.6833,8.68
250,Mareeba,74,AU,1596434400,63,71.13,-17.0,145.4333,6.33
251,La Paz,14,BO,1596434400,31,40.41,-16.5,-68.15,3.42
252,Ozernovskiy,100,RU,1596434400,88,55.99,51.5,156.5167,12.5
253,Eureka,3,US,1596434400,49,59.31,40.8021,-124.1637,3.44
254,Broken Hill,100,AU,1596434400,24,67.5,-31.95,141.4333,9.4
255,Klæbu,94,NO,1596434400,89,52.92,63.2976,10.4826,8.12
256,Clyde,3,US,1596434400,93,63.95,41.3042,-82.9752,6.46
257,Mattru,92,SL,1596434400,97,70.29,7.6244,-11.8332,1.41
258,Muisne,99,EC,1596434400,86,74.52,0.6,-80.0333,6.71
259,Alexandria,10,EG,1596434400,75,82.62,31.2156,29.9553,8.19
260,Sainte-Anne-des-Monts,100,CA,1596434400,86,67.08,49.124,-66.4924,8.3
261,Mabaruma,92,GY,1596434400,98,72.5,8.2,-59.7833,2.44
262,Waipawa,91,NZ,1596434400,78,51.39,-41.4122,175.5153,3.2
263,Watertown,63,US,1596434400,89,77.4,42.3709,-71.1828,8.19
264,San Patricio,98,MX,1596434400,84,81.5,19.2167,-104.7,4.88
265,Langsa,98,ID,1596434400,54,93.74,4.4683,97.9683,5.21
266,Ternate,100,ID,1596434400,85,78.89,0.8,127.4,8.77
267,Turukhansk,40,RU,1596434400,69,70.05,65.8167,87.9833,6.93
268,Slobozia,0,MD,1596434400,70,69.55,46.7281,29.7078,4.72
269,Cayenne,56,GF,1596434400,93,76.59,4.9333,-52.3333,5.68
270,Tabou,97,CI,1596434400,80,71.62,4.423,-7.3528,2.44
271,Amod,59,IN,1596434400,68,92.35,21.9833,72.9,12.19
272,Kidal,100,ML,1596434400,58,82.24,18.4411,1.4078,16.87
273,Philadelphia,33,US,1596434400,62,81.95,39.9523,-75.1638,9.04
274,Melilla,0,ES,1596434400,44,81.21,35.2937,-2.9383,12.55
275,Vuktyl,100,RU,1596434400,93,54.86,63.8567,57.3094,9.82
276,Julfa,24,AZ,1596434400,53,80.56,38.9558,45.6308,1.57
277,Namatanai,46,PG,1596434400,75,83.91,-3.6667,152.4333,10.33
278,Giohar,85,SO,1596434400,75,79.07,2.7809,45.5005,19.22
279,Dikson,87,RU,1596434400,78,53.51,73.5069,80.5464,15.7
280,Malartic,95,CA,1596434400,95,51.37,48.1335,-78.1328,11.7
281,Tilichiki,53,RU,1596434400,66,59.22,60.4667,166.1,8.28
282,Coruripe,67,BR,1596434400,83,72.48,-10.1256,-36.1756,9.28
283,Provideniya,87,RU,1596434400,63,50.27,64.3833,-173.3,5.44
284,Khāsh,10,IR,1596434400,12,93.4,28.2211,61.2158,1.92
285,Ucluelet,89,CA,1596434400,91,60.21,48.9329,-125.5528,5.26
286,Wanning,99,CN,1596434400,74,87.57,18.8003,110.3967,12.08
287,Finschhafen,9,PG,1596434400,65,83.19,-6.6024,147.8681,9.37
288,Cerritos,1,US,1596434400,65,74.68,33.8583,-118.0648,5.99
289,Bengkulu,45,ID,1596434400,76,82.62,-3.8004,102.2655,8.32
290,Neiafu,87,TO,1596434400,85,75.92,-18.65,-173.9833,13.94
291,Labuhan,41,ID,1596434400,59,85.48,-6.8844,112.2051,7.99
292,Pierre,13,US,1596434400,66,64.4,44.3683,-100.351,9.93
293,Snåase,100,NO,1596434400,89,57.51,64.2457,12.3778,6.71
294,Sisimiut,35,GL,1596434400,72,47.71,66.9395,-53.6735,8.59
295,Massaguet,59,TD,1596434400,92,74.01,12.4755,15.4365,14.09
296,Cap Malheureux,26,MU,1596434400,65,69.98,-19.9842,57.6142,22.62
297,Beaverlodge,77,CA,1596434400,88,64.87,55.2166,-119.4361,3.38
298,Aykhal,91,RU,1596434400,30,75.52,66.0,111.5,3.49
299,Chui,76,UY,1596434400,93,59.7,-33.6971,-53.4616,3.78
300,Yagodnoye,46,RU,1596434400,43,65.82,62.55,149.6667,4.81
301,Ossora,18,RU,1596434400,61,61.14,59.2353,163.0719,7.05
302,San Quintín,22,MX,1596434400,84,69.15,30.4833,-115.95,3.62
303,Balaipungut,57,ID,1596434400,58,90.63,1.05,101.2833,5.32
304,Jiwani,16,PK,1596434400,78,85.55,25.05,61.7417,7.63
305,Hasaki,21,JP,1596434400,68,85.64,35.7333,140.8333,8.21
306,Pisco,0,PE,1596434400,86,57.85,-13.7,-76.2167,1.32
307,Anjozorobe,62,MG,1596434400,77,53.15,-18.4,47.8667,17.72
308,Sri Aman,61,MY,1596434400,67,88.75,1.2376,111.4621,4.68
309,Palmer,90,US,1596434400,92,74.77,42.1584,-72.3287,4.79
310,Tulun,100,RU,1596434400,68,72.54,54.5611,100.5792,6.91
311,Egvekinot,81,RU,1596434400,64,48.02,66.3167,-179.1667,1.41
312,Clarksburg,20,US,1596434400,84,64.63,39.2807,-80.3445,2.51
313,Chicholi,100,IN,1596434400,73,86.43,21.4667,79.6833,7.96
314,Amberley,11,US,1596434400,88,68.31,39.2048,-84.428,3.47
315,Margate,99,GB,1596434400,81,61.11,51.3813,1.3862,12.84
316,Tulsīpur,40,NP,1596434400,78,85.71,28.131,82.2973,4.52
317,Makakilo City,85,US,1596434400,66,79.36,21.3469,-158.0858,17.72
318,Sabang,99,ID,1596434400,78,83.14,5.8933,95.3214,24.96
319,Westport,41,US,1596434400,75,79.63,41.1415,-73.3579,10.29
320,Balkanabat,0,TM,1596434400,12,99.14,39.5108,54.3671,11.3
321,Te Anau,100,NZ,1596434400,81,50.31,-45.4167,167.7167,2.35
322,General Roca,77,AR,1596434400,58,51.3,-39.0333,-67.5833,17.07
323,Dekar,0,BW,1596434400,53,48.74,-21.5333,21.9333,8.39
324,Port Lincoln,73,AU,1596434400,61,56.77,-34.7333,135.8667,9.31
325,Nieuw Amsterdam,100,SR,1596434400,93,75.11,5.8833,-55.0833,5.44
326,Klyuchi,57,RU,1596434400,48,79.95,52.2667,79.1667,17.52
327,Nome,21,US,1596434400,64,62.64,64.5011,-165.4064,3.38
328,Bubaque,100,GW,1596434400,92,77.04,11.2833,-15.8333,10.02
329,Puerto Colombia,87,CO,1596434400,83,83.48,10.9878,-74.9547,21.77
330,Murray Bridge,83,AU,1596434400,73,56.66,-35.1167,139.2667,9.78
331,Leningradskiy,100,RU,1596434400,87,40.24,69.3833,178.4167,9.06
332,Grajewo,92,PL,1596434400,81,63.72,53.6473,22.4554,7.78
333,Praia da Vitória,47,PT,1596434400,85,71.8,38.7333,-27.0667,5.95
334,Bodmin,44,GB,1596434400,90,53.87,50.4715,-4.7243,3.67
335,Portland,53,US,1596434400,48,72.64,45.5234,-122.6762,3.29
336,Vung Tau,96,VN,1596434400,76,85.12,10.346,107.0843,14.7
337,Coquimbo,0,CL,1596434400,79,55.9,-29.9533,-71.3436,2.98
338,Imbituba,25,BR,1596434400,88,62.35,-28.24,-48.6703,5.28
339,Teleneşti,49,MD,1596434400,64,68.76,47.4997,28.3656,6.93
340,Aklavik,84,CA,1596434400,82,55.36,68.2191,-135.0107,7.16
341,Lahat,25,ID,1596434400,48,91.87,-3.8,103.5333,5.26
342,Ixtapa,77,MX,1596434400,81,82.02,20.7,-105.2,2.1
343,East London,0,ZA,1596434400,19,74.25,-33.0153,27.9116,14.43
344,Balikpapan,47,ID,1596434400,78,84.49,-1.2675,116.8289,3.49
345,Sakakah,0,SA,1596434400,21,94.06,29.9697,40.2064,12.62
346,College,63,US,1596434400,74,58.75,64.8569,-147.8028,1.79
347,Nabire,13,ID,1596434400,70,84.69,-3.3667,135.4833,2.98
348,Narsaq,71,GL,1596434400,86,45.36,60.9167,-46.05,2.24
349,Tiksi,31,RU,1596434400,73,48.56,71.6872,128.8694,8.23
350,Leshukonskoye,100,RU,1596434400,90,51.67,64.8989,45.7622,6.76
351,Aquiraz,24,BR,1596434400,79,78.08,-3.9014,-38.3911,14.72
352,Grand Gaube,36,MU,1596434400,65,69.84,-20.0064,57.6608,23.31
353,Grafenau,100,DE,1596434400,95,60.24,48.8577,13.3974,2.13
354,Ōhara,22,JP,1596434400,71,85.23,35.25,140.3833,7.43
355,Kollam,94,IN,1596434400,81,81.03,8.8833,76.6,9.66
356,Paciran,59,ID,1596434400,60,85.51,-6.8767,112.3761,7.87
357,Tabas,0,IR,1596434400,13,100.69,33.5959,56.9244,2.89
358,Tūkrah,0,LY,1596434400,79,80.65,32.5341,20.5791,3.38
359,Orlik,100,RU,1596434400,82,52.59,52.5178,99.825,3.47
360,Klaksvík,100,FO,1596434400,95,50.47,62.2266,-6.589,13.0
361,Coyhaique,99,CL,1596434400,89,38.5,-45.5752,-72.0662,4.81
362,Aasiaat,22,GL,1596434400,91,37.47,68.7098,-52.8699,5.23
363,Auki,7,SB,1596434400,66,85.96,-8.7676,160.7034,1.7
364,Vila,95,PT,1596434400,80,54.75,42.0304,-8.1588,2.3
365,Gunjur,87,GM,1596434400,89,80.46,13.2019,-16.7339,12.95
366,Yerbogachën,0,RU,1596434400,40,76.95,61.2767,108.0108,7.72
367,Ulaanbaatar,83,MN,1596434400,71,62.42,47.9077,106.8832,11.97
368,Jinchang,17,CN,1596434400,19,90.1,38.4953,102.1739,19.04
369,Chunskiy,88,RU,1596434400,42,79.81,56.0815,99.6342,4.56
370,San Luis,8,AR,1596434400,60,55.81,-33.295,-66.3356,7.29
371,Banda Aceh,100,ID,1596434400,67,86.29,5.5577,95.3222,18.03
372,Esna,43,EG,1596434400,20,97.5,25.2934,32.554,8.59
373,Palana,5,RU,1596434400,68,55.8,59.1167,159.9667,13.96
374,Dallas,20,US,1596434400,39,86.04,32.7668,-96.7836,5.01
375,Hima,11,UG,1596434400,44,75.11,0.2958,30.1804,2.68
376,Ranong,87,TH,1596434400,80,84.34,9.9658,98.6348,20.62
377,Pudozh,74,RU,1596434400,92,54.1,61.8099,36.5345,5.06
378,Saint Paul Harbor,37,US,1596434400,72,59.4,57.79,-152.4072,9.17
379,Nouadhibou,0,MR,1596434400,78,74.07,20.931,-17.0347,24.11
380,Nioro,100,GM,1596434400,93,76.64,13.35,-15.75,8.05
381,New Ulm,1,US,1596434400,72,57.58,44.3125,-94.4605,4.21
382,Rudnya,2,RU,1596434400,85,59.59,54.947,31.0934,7.09
383,Dingle,91,PH,1596434400,66,89.06,10.9995,122.6711,5.84
384,Yangi Marg`ilon,0,UZ,1596434400,19,94.91,40.4272,71.7189,9.17
385,Ust-Maya,41,RU,1596434400,30,80.04,60.4167,134.5333,5.37
386,Aloleng,100,PH,1596434400,72,85.87,16.1307,119.7824,15.52
387,Jalu,0,LY,1596434400,70,79.32,29.0331,21.5482,9.89
388,Agadez,91,NE,1596434400,34,88.41,19.75,10.25,2.93
389,Phan Thiet,99,VN,1596434400,73,86.14,10.9333,108.1,14.29
390,Havøysund,95,NO,1596434400,87,50.29,70.9963,24.6622,9.75
391,Khanpur,0,PK,1596434400,33,107.47,28.6453,70.6567,16.58
392,Cockburn Town,2,TC,1596434400,82,82.51,21.4612,-71.1419,19.01
393,Ipixuna,53,BR,1596434400,90,75.36,-1.7625,-48.8043,3.49
394,Taywarah,0,AF,1596434400,25,73.49,33.35,64.4167,4.54
395,Key West,59,US,1596434400,79,84.67,24.5557,-81.7826,6.42
396,Shimoda,36,JP,1596434400,78,80.38,34.6667,138.95,5.91
397,Sai Buri,55,TH,1596434400,69,88.79,6.7013,101.6168,1.14
398,Saint-François,100,FR,1596434400,72,60.15,46.4154,3.9054,6.69
399,Khanbari,99,NP,1596434400,63,86.97,27.3747,87.2039,2.15
400,Narón,46,ES,1596434400,86,59.79,43.5167,-8.1528,5.5
401,City of San Pedro,93,PH,1596434400,59,89.94,14.35,121.0167,4.41
402,Ryōtsu-minato,82,JP,1596434400,84,80.04,38.0833,138.4333,4.23
403,Richards Bay,0,ZA,1596434400,73,63.73,-28.783,32.0377,15.93
404,Zyryanka,54,RU,1596434400,39,68.13,65.75,150.85,9.46
405,Yershov,91,RU,1596434400,52,72.61,51.3513,48.2766,2.53
406,Yining,97,CN,1596434400,48,98.98,29.0361,114.5636,2.26
407,Carutapera,7,BR,1596434400,92,74.8,-1.195,-46.02,4.14
408,Kiryat Gat,0,IL,1596434400,40,86.7,31.61,34.7642,3.47
409,Constitución,24,CL,1596434400,89,52.66,-35.3333,-72.4167,3.06
410,Ati,100,TD,1596434400,85,74.82,13.2154,18.3353,11.54
411,Pangnirtung,69,CA,1596434400,73,49.26,66.1451,-65.7125,2.35
412,Galveston,1,US,1596434400,72,81.5,29.3669,-94.9669,5.37
413,Gizo Government Station,13,SB,1596434400,76,83.79,-8.103,156.8419,7.14
414,Okmulgee,1,US,1596434400,71,69.53,35.6234,-95.9605,4.05
415,Pimentel,23,PE,1596434400,93,59.79,-6.8367,-79.9342,8.32
416,Muli,100,MV,1596434400,79,82.87,2.9167,73.5667,13.73
417,Kaseda-shirakame,80,JP,1596434400,69,84.4,31.4167,130.3167,7.9
418,Bitkine,100,TD,1596434400,94,71.08,11.9801,18.2138,10.83
419,Bam,2,IR,1596434400,11,102.45,29.106,58.357,14.0
420,Talnakh,25,RU,1596434400,60,69.62,69.4865,88.3972,8.1
421,Raudeberg,100,NO,1596434400,88,54.32,61.9875,5.1352,11.01
422,Inyonga,2,TZ,1596434400,59,64.6,-6.7167,32.0667,7.25
423,Gushikawa,61,JP,1596434400,74,87.26,26.3544,127.8686,15.52
424,Katima Mulilo,0,NA,1596434400,50,51.89,-17.5,24.2667,5.73
425,Kadoma,68,JP,1596434400,49,94.21,34.7333,135.5833,8.86
426,Durango,19,MX,1596434400,56,63.43,24.8333,-104.8333,2.91
427,Ust-Kuyga,98,RU,1596434400,58,56.17,70.0167,135.6,10.42
428,Adrar,0,MR,1596434400,24,94.12,20.5022,-10.0711,12.19
429,Nerchinskiy Zavod,100,RU,1596434400,96,61.41,51.3088,119.61,15.82
430,Wattegama,87,LK,1596434400,67,93.97,6.7989,81.4808,10.63
431,Pontes e Lacerda,0,BR,1596434400,42,69.8,-15.2261,-59.3353,3.02
432,Thunder Bay,31,CA,1596434400,68,56.34,48.4001,-89.3168,6.26
433,Kargasok,25,RU,1596434400,56,79.38,59.0556,80.8572,4.12
434,Itanhém,5,BR,1596434400,89,58.93,-17.1664,-40.33,1.77
435,Kālīganj,95,BD,1596434400,69,93.56,23.4095,89.1402,5.32
436,Nanortalik,88,GL,1596434400,93,46.09,60.1432,-45.2371,7.65
437,North Platte,1,US,1596434400,78,61.77,41.1239,-100.7654,7.52
438,Panukulan,69,PH,1596434400,69,85.98,14.9333,121.8144,10.74
439,Fuerte Olimpo,0,PY,1596434400,47,70.84,-21.0415,-57.8738,4.07
440,Tondano,69,ID,1596434400,92,74.8,1.3038,124.9112,2.66
441,Oranjemund,0,NA,1596434400,46,60.55,-28.55,16.4333,7.23
442,Ayan,67,RU,1596434400,70,58.96,56.45,138.1667,13.42
443,Chicama,48,PE,1596434400,86,60.37,-7.8447,-79.1469,3.85
444,Petropavlovsk-Kamchatskiy,95,RU,1596434400,97,52.09,53.0452,158.6483,10.2
445,Bījār,0,IR,1596434400,25,78.19,35.8668,47.6051,5.61
446,Bagpat,41,IN,1596434400,59,100.31,28.95,77.2167,15.21
447,Amahai,94,ID,1596434400,81,79.65,-3.3333,128.9167,7.29
448,Babušnica,0,RS,1596434400,75,67.57,43.0597,22.4117,5.12
449,Saint-Pierre,73,RE,1596434400,60,69.48,-21.3393,55.4781,16.91
450,Nara,67,JP,1596434400,51,94.93,34.6851,135.8049,6.49
451,Coahuayana Viejo,94,MX,1596434400,86,80.01,18.7333,-103.6833,0.67
452,Muyezerskiy,48,RU,1596434400,87,56.66,63.9333,31.65,6.46
453,São José da Coroa Grande,10,BR,1596434400,78,73.45,-8.8978,-35.1478,10.96
454,Zhigansk,78,RU,1596434400,40,69.78,66.7697,123.3711,14.34
455,Sept-Îles,87,CA,1596434400,87,64.24,50.2001,-66.3821,3.29
456,Muros,98,ES,1596434400,81,61.14,42.7762,-9.0603,3.56
457,Moengo,95,SR,1596434400,97,73.02,5.6167,-54.4,2.15
458,Flin Flon,0,CA,1596434400,60,61.83,54.7682,-101.865,5.23
459,Guarapari,21,BR,1596434400,84,65.01,-20.6667,-40.4975,6.73
460,Ceres,1,US,1596434400,25,78.24,37.5949,-120.9577,5.32
461,Tambovka,87,RU,1596434400,86,70.14,50.0969,128.0489,16.91
462,Erzin,30,TR,1596434400,74,83.7,36.9559,36.2,3.83
463,Holme,13,DK,1596434400,88,56.19,56.1138,10.1725,10.07
464,Ekhabi,89,RU,1596434400,78,57.61,53.5102,142.9671,10.58
465,Magdagachi,100,RU,1596434400,97,55.69,53.45,125.8,8.63
466,Tooele,1,US,1596434400,23,80.33,40.5308,-112.2983,5.01
467,Clarksdale,7,US,1596434400,83,72.84,34.2001,-90.5709,5.57
468,Mount Gambier,75,AU,1596434400,64,51.64,-37.8333,140.7667,10.22
469,Dalby,19,AU,1596434400,40,66.56,-27.1833,151.2667,4.32
470,Markova,100,UA,1596434400,83,64.4,48.6758,24.4138,1.68
471,Ol'ga,100,RU,1596434400,96,69.39,43.7444,135.2892,6.06
472,Port Keats,92,AU,1596434400,37,80.2,-14.25,129.55,12.66
473,Vila Velha,23,BR,1596434400,82,67.19,-20.3297,-40.2925,8.81
474,Kangaatsiaq,19,GL,1596434400,90,42.08,68.3065,-53.4641,7.7
475,Cabedelo,19,BR,1596434400,90,73.33,-6.9811,-34.8339,14.65
476,Arti,100,RU,1596434400,87,66.38,56.4234,58.5328,2.62
477,Marsh Harbour,95,BS,1596434400,80,83.07,26.5412,-77.0636,25.46
478,Dubuque,40,US,1596434400,92,60.12,42.4833,-90.8668,8.9
479,Fredericksburg,58,US,1596434400,91,75.02,38.3032,-77.4605,2.37
480,Pathānkot,0,IN,1596434400,53,96.4,32.2833,75.65,3.33
481,Katherine,55,AU,1596434400,25,92.93,-14.4667,132.2667,4.14
482,Padang,96,ID,1596434400,61,85.14,-0.9492,100.3543,5.79
483,Hong Kong,69,HK,1596434400,81,82.33,22.2855,114.1577,6.89
484,Örnsköldsvik,100,SE,1596434400,96,58.59,63.2909,18.7153,10.8
485,Władysławowo,99,PL,1596434400,91,62.65,54.7909,18.4009,4.41
486,Nakusp,59,CA,1596434400,59,69.19,50.2499,-117.8023,2.62
487,Mildura,100,AU,1596434400,46,63.84,-34.2,142.15,6.42
488,Havre-St-Pierre,87,CA,1596434400,83,64.49,50.2334,-63.5986,8.03
489,Ayagoz,100,KZ,1596434400,38,80.26,47.9714,80.4392,9.66
490,Marawi,89,PH,1596434400,88,77.38,7.9986,124.2928,2.64
491,Herat Province,0,AF,1596434400,15,87.44,34.5,62.0,22.1
492,Toronto,78,CA,1596434400,81,68.13,43.7001,-79.4163,11.43
493,Ismailia,8,EG,1596434400,83,80.24,30.6043,32.2723,7.45
494,Rantepao,97,ID,1596434400,83,74.37,-2.9701,119.8978,0.81
495,Minchianabad,9,PK,1596434400,34,106.59,30.163,73.5685,16.37
496,Fremont,1,US,1596434400,63,66.47,37.5483,-121.9886,3.47
497,Raipur,87,IN,1596434400,69,91.49,21.2333,81.6333,14.88
498,Miraflores,95,MX,1596434400,71,62.29,19.2167,-98.8083,2.59
499,Graaff-Reinet,0,ZA,1596434400,28,60.73,-32.2522,24.5308,11.54
500,Alofi,100,NU,1596434400,82,76.1,-19.0595,-169.9187,13.98
501,Shaunavon,0,CA,1596434400,40,70.84,49.6501,-108.4181,16.15
502,Pokhara,89,NP,1596434400,74,84.24,28.2333,83.9833,0.83
503,Kruisfontein,0,ZA,1596434400,28,63.97,-34.0033,24.7314,11.52
504,Willmar,1,US,1596434400,78,57.33,45.1219,-95.0433,6.06
505,Nizwá,1,OM,1596434400,33,99.46,22.9333,57.5333,3.85
506,Clarence Town,98,AU,1596434400,54,64.87,-32.5833,151.7833,4.47
507,Marsá Maţrūḩ,21,EG,1596434400,81,81.12,31.3525,27.2453,8.77
508,Emerald,7,AU,1596434400,41,71.29,-23.5333,148.1667,14.7
509,Nagorsk,85,RU,1596434400,82,60.22,59.3172,50.8078,4.41
510,Primo Tapia,42,MX,1596434400,86,68.76,32.22,-116.9172,1.32
511,Khandyga,17,RU,1596434400,29,80.87,62.6667,135.6,5.26
512,Mahajanga,10,MG,1596434400,49,74.61,-15.7167,46.3167,19.22
513,Beringovskiy,97,RU,1596434400,69,48.83,63.05,179.3167,8.79
514,Plettenberg Bay,0,ZA,1596434400,39,63.36,-34.0527,23.3716,5.95
515,Touros,9,BR,1596434400,83,73.53,-5.1989,-35.4608,17.45
516,Kodinsk,63,RU,1596434400,34,81.79,58.6881,99.1844,5.14
517,Sovetskiy,98,RU,1596434400,69,69.71,61.3614,63.5842,12.03
518,Hirtshals,4,DK,1596434400,87,58.59,57.5881,9.9592,20.69
519,Havelock,1,US,1596434400,86,80.78,34.8791,-76.9013,8.46
520,Abu Samrah,0,SY,1596434400,47,83.08,35.3029,37.1841,5.03
521,Port Hueneme,1,US,1596434400,78,68.34,34.1478,-119.1951,1.19
522,Ilām,87,NP,1596434400,73,84.74,26.9167,87.9167,4.9
523,Bahādurganj,80,IN,1596434400,64,97.77,26.2667,87.8167,2.13
524,Kirakira,22,SB,1596434400,77,83.34,-10.4544,161.9205,8.32
525,Isiro,24,CD,1596434400,95,70.61,2.7739,27.616,1.43
526,Tsubata,80,JP,1596434400,60,87.69,36.6667,136.7333,5.5
527,Cuamba,13,MZ,1596434400,79,67.89,-14.8031,36.5372,4.18
528,Dali,16,CN,1596434400,59,77.95,25.7,100.1833,3.96
529,Sorong,100,ID,1596434400,84,82.02,-0.8833,131.25,13.67
530,Naryan-Mar,97,RU,1596434400,76,62.91,67.6713,53.087,10.47
531,Brae,100,GB,1596434400,83,53.29,60.3964,-1.353,14.38
532,San Miguel,100,SV,1596434400,94,76.19,13.4833,-88.1833,1.79
533,Goderich,50,CA,1596434400,62,66.65,43.7501,-81.7165,10.13
534,Rehoboth,0,NA,1596434400,52,47.01,-23.3167,17.0833,3.62
535,Entre Rios,19,BR,1596434400,97,66.02,-11.9419,-38.0844,5.08
536,Santa Cruz de la Sierra,2,BO,1596434400,66,68.43,-17.8,-63.1667,3.31
537,Jambi City,68,ID,1596434400,52,92.97,-1.6,103.6167,4.43
538,Osogbo,100,NG,1596434400,94,70.02,7.7667,4.5667,4.79
539,Ipu,48,BR,1596434400,64,73.27,-4.3222,-40.7108,3.87
540,Beaufort,59,MY,1596434400,55,91.74,5.3473,115.7455,5.12
541,Golden,44,US,1596434400,46,68.92,39.7555,-105.2211,3.51
542,Half Moon Bay,1,US,1596434400,87,60.6,37.4636,-122.4286,7.96
543,Zhangjiakou Shi Xuanhua Qu,1,CN,1596434400,30,87.93,40.6103,115.0447,13.62
544,Usinsk,99,RU,1596434400,93,55.58,65.9939,57.5281,11.81
545,Harwich,100,GB,1596434400,81,58.78,51.9419,1.2844,12.68
546,Lusambo,59,CD,1596434400,40,78.91,-4.9667,23.45,2.13
547,Sur,25,OM,1596434400,60,92.73,22.5667,59.5289,12.28
