,City,Cloudiness,Country,Date,Humidity,Temp,Lat,Lng,Wind Speed
0,Provideniya,19,RU,1596337200,59,50.11,64.3833,-173.3,10.56
1,Hobart,87,AU,1596337200,50,53.87,-42.8794,147.3294,10.11
2,Ponta do Sol,2,PT,1596337200,57,71.02,32.6667,-17.1,6.24
3,Kapaa,11,US,1596337200,68,79.57,22.0752,-159.319,11.3
4,Port Alfred,0,ZA,1596337200,69,58.17,-33.5906,26.891,9.1
5,Vila Franca do Campo,41,PT,1596337200,76,69.01,37.7167,-25.4333,5.57
6,Rikitea,10,PF,1596337200,77,73.92,-23.1203,-134.9692,6.26
7,Busselton,68,AU,1596337200,82,58.87,-33.65,115.3333,10.71
8,Ushuaia,56,AR,1596337200,86,37.08,-54.8,-68.3,4.72
9,Olafsvik,100,IS,1596337200,88,48.29,64.8945,-23.7142,20.45
10,Bredasdorp,4,ZA,1596337200,78,51.4,-34.5322,20.0403,4.56
11,Baft,5,IR,1596337200,44,72.75,29.234,56.6057,2.39
12,Husavik,69,IS,1596337200,86,51.4,66.0449,-17.3389,2.98
13,Santa Rosa,100,PH,1596337200,86,81.59,14.3122,121.1114,1.45
14,Vaini,82,TO,1596337200,74,72.41,-21.2,-175.2,18.34
15,La Ronge,10,CA,1596337200,51,68.77,55.1001,-105.2842,4.16
16,Tuktoyaktuk,94,CA,1596337200,91,50.36,69.4541,-133.0374,21.88
17,Bedēsa,93,ET,1596337200,85,61.65,8.9,40.7833,6.53
18,Saint-Philippe,79,RE,1596337200,71,66.72,-21.3585,55.7679,11.18
19,Saldanha,0,ZA,1596337200,64,62.44,-33.0117,17.9442,11.07
20,Canguçu,24,BR,1596337200,93,53.51,-31.395,-52.6756,4.94
21,Maceió,65,BR,1596326400,90,76.1,-9.6658,-35.7353,11.79
22,Dikson,74,RU,1596337200,85,50.49,73.5069,80.5464,17.85
23,Suntar,0,RU,1596337200,42,77.99,62.1444,117.6319,7.11
24,Tigil',2,RU,1596337200,51,66.92,57.8,158.6667,11.74
25,Faanui,13,PF,1596337200,80,78.8,-16.4833,-151.75,10.71
26,Vostok,50,RU,1596337200,61,82.44,46.4856,135.8833,6.96
27,Ostrovnoy,99,RU,1596337200,88,50.97,68.0531,39.5131,17.18
28,Mount Gambier,95,AU,1596337200,81,56.28,-37.8333,140.7667,5.82
29,Bol'shoye Selo,8,RU,1596337200,94,49.28,57.7177,38.9334,5.91
30,Lebanon,55,US,1596337200,90,72.82,36.2081,-86.2911,7.09
31,Qaanaaq,72,GL,1596337200,74,39.31,77.484,-69.3632,7.87
32,Albany,88,US,1596337200,60,75.97,42.6001,-73.9662,1.88
33,Norman Wells,34,CA,1596337200,37,86.95,65.282,-126.8329,5.08
34,Arrondissement de Saint-Denis,78,FR,1596337200,68,65.66,48.9167,2.3333,8.84
35,Camacha,49,PT,1596326400,96,69.06,33.0833,-16.3333,16.22
36,Pangody,92,RU,1596337200,87,62.65,65.85,74.4859,11.99
37,Padang,95,ID,1596337200,72,84.18,-0.9492,100.3543,3.31
38,Port Moresby,20,PG,1596337200,59,81.27,-9.4431,147.1797,12.03
39,Coquimbo,28,CL,1596337200,81,56.03,-29.9533,-71.3436,3.62
40,Geraldton,13,AU,1596337200,77,62.85,-28.7667,114.6,15.08
41,Punta Arenas,94,CL,1596337200,88,36.25,-53.15,-70.9167,10.09
42,Tasiilaq,5,GL,1596337200,53,44.89,65.6145,-37.6368,3.49
43,Deputatsky,27,RU,1596337200,53,62.37,69.3,139.9,6.38
44,San Patricio,69,MX,1596337200,77,83.44,19.2167,-104.7,4.65
45,Lagoa,0,PT,1596337200,71,70.95,39.05,-27.9833,8.19
46,Arraial do Cabo,32,BR,1596337200,81,68.65,-22.9661,-42.0278,12.86
47,Lagos,59,NG,1596337200,87,75.22,6.5833,3.75,4.38
48,Aykhal,21,RU,1596326400,49,66.2,66.0,111.5,3.49
49,Ribeira Grande,11,PT,1596337200,68,71.46,38.5167,-28.7,6.8
50,Kaitangata,85,NZ,1596337200,74,55.6,-46.2817,169.8464,1.25
51,Atar,2,MR,1596337200,28,96.71,20.5169,-13.0499,13.85
52,Bay Roberts,71,CA,1596337200,48,61.0,47.5999,-53.2648,2.59
53,Bathsheba,10,BB,1596337200,78,81.73,13.2167,-59.5167,9.04
54,Jamestown,95,US,1596337200,88,66.74,42.097,-79.2353,8.08
55,Dingle,100,PH,1596337200,80,80.82,10.9995,122.6711,2.26
56,Marsh Harbour,99,BS,1596337200,81,83.3,26.5412,-77.0636,29.95
57,Hambantota,76,LK,1596337200,75,83.46,6.1241,81.1185,18.01
58,San Carlos del Zulia,65,VE,1596337200,78,81.16,9.0,-71.9135,1.61
59,Lompoc,0,US,1596337200,61,67.33,34.6391,-120.4579,7.56
60,Santa Fe,42,AR,1596337200,71,69.15,-31.6333,-60.7,11.03
61,Riviere-au-Renard,3,CA,1596337200,78,67.66,48.9957,-64.3971,5.39
62,Krasnosel'kup,97,RU,1596326400,65,60.98,65.7,82.4667,17.22
63,Cidreira,0,BR,1596337200,74,59.4,-30.1811,-50.2056,10.16
64,Makkah al Mukarramah,93,SA,1596337200,69,83.03,21.4267,39.8261,14.74
65,Beringovskiy,100,RU,1596337200,79,50.77,63.05,179.3167,12.91
66,Bonavista,67,CA,1596326400,85,59.13,48.6499,-53.1147,6.85
67,Bambous Virieux,87,MU,1596337200,80,70.47,-20.3428,57.7575,18.79
68,George Town,65,MY,1596337200,80,83.68,5.4112,100.3354,5.68
69,Gračac,1,HR,1596337200,62,71.76,44.3006,15.8547,6.62
70,Hermanus,1,ZA,1596337200,65,61.07,-34.4187,19.2345,5.39
71,Avarua,83,CK,1596337200,62,70.99,-21.2078,-159.775,9.26
72,Bluff,92,NZ,1596337200,87,51.75,-46.6,168.3333,10.45
73,Clyde River,12,CA,1596337200,87,43.23,70.4692,-68.5914,3.74
74,Port Keats,0,AU,1596337200,26,83.88,-14.25,129.55,5.14
75,Codrington,100,AU,1596337200,77,55.94,-38.2667,141.9667,9.06
76,Shiyan,62,CN,1596337200,70,92.07,32.6475,110.7781,1.54
77,Richards Bay,0,ZA,1596337200,88,60.55,-28.783,32.0377,3.13
78,Poltavka,4,RU,1596337200,61,78.71,54.3663,71.7632,1.03
79,Hithadhoo,23,MV,1596337200,72,83.08,-0.6,73.0833,10.07
80,Carnarvon,0,AU,1596337200,76,68.85,-24.8667,113.6333,14.92
81,Esna,13,EG,1596337200,20,90.03,25.2934,32.554,5.68
82,Klaksvík,33,FO,1596337200,95,50.31,62.2266,-6.589,16.6
83,Kavaratti,100,IN,1596337200,80,81.99,10.5669,72.642,21.79
84,Victoria Point,1,AU,1596337200,66,67.51,-27.5833,153.3,7.18
85,Puerto Ayora,86,EC,1596337200,90,68.67,-0.7393,-90.3518,6.87
86,Corrente,24,BR,1596337200,73,73.99,-3.7367,-43.3394,1.28
87,Tel'ma,95,RU,1596337200,96,58.64,52.6983,103.7097,14.76
88,Folldal,86,NO,1596337200,79,55.85,62.1325,9.9968,4.29
89,Nome,95,US,1596337200,73,58.41,64.5011,-165.4064,4.74
90,Jacareacanga,82,BR,1596326400,39,84.94,-6.2222,-57.7528,1.74
91,Naze,51,JP,1596337200,76,83.05,28.3667,129.4833,8.88
92,Upernavik,17,GL,1596337200,70,41.76,72.7868,-56.1549,12.8
93,Iqaluit,68,CA,1596337200,73,52.79,63.7506,-68.5145,4.97
94,Moranbah,21,AU,1596337200,55,69.49,-22.0016,148.0466,15.3
95,Prince Rupert,59,CA,1596326400,65,68.23,54.3161,-130.3201,10.4
96,Sainte-Marie,49,RE,1596337200,78,68.97,-20.8968,55.5496,11.97
97,Manta,68,EC,1596337200,81,74.23,-0.95,-80.7333,9.24
98,Pandan,100,PH,1596326400,79,79.74,14.0453,124.1694,3.02
99,Hofn,100,IS,1596337200,97,51.4,64.2539,-15.2082,10.85
100,Mianwali,6,PK,1596337200,45,96.51,32.5741,71.5264,4.79
101,Batočina,0,RS,1596337200,86,60.69,44.1536,21.0817,1.92
102,Kavieng,98,PG,1596337200,78,83.52,-2.5744,150.7967,10.92
103,Lubango,0,AO,1596337200,41,56.34,-14.9172,13.4925,3.44
104,Shimoda,30,JP,1596337200,74,80.85,34.6667,138.95,7.72
105,Pevek,97,RU,1596337200,91,37.24,69.7008,170.3133,5.1
106,Marzuq,1,YE,1596337200,67,75.45,14.4,46.4667,6.78
107,Saint Paul Harbor,61,US,1596337200,84,57.07,57.79,-152.4072,4.32
108,Zhigansk,0,RU,1596337200,48,66.27,66.7697,123.3711,15.97
109,Adrar,2,MR,1596337200,12,96.15,20.5022,-10.0711,3.04
110,Lebu,48,CL,1596337200,94,50.65,-37.6167,-73.65,8.79
111,Talcahuano,75,CL,1596326400,94,54.36,-36.7167,-73.1167,7.67
112,Srednekolymsk,75,RU,1596337200,51,60.84,67.45,153.6833,5.37
113,Noumea,59,NC,1596337200,55,69.98,-22.2763,166.4572,7.54
114,Mataura,100,NZ,1596337200,78,55.13,-46.1927,168.8643,2.28
115,Anadyr,87,RU,1596326400,74,52.72,64.75,177.4833,2.68
116,Severo-Kuril'sk,95,RU,1596337200,78,56.35,50.6789,156.125,6.44
117,Yulara,0,AU,1596337200,27,70.02,-25.2406,130.9889,5.91
118,San Rafael,22,AR,1596337200,32,57.81,-34.6177,-68.3301,8.63
119,Cape Town,0,ZA,1596337200,65,60.96,-33.9258,18.4232,6.82
120,Barra da Estiva,58,BR,1596337200,92,57.88,-13.6261,-41.3269,5.01
121,Barrow,37,US,1596337200,75,38.21,71.2906,-156.7887,8.63
122,Paamiut,100,GL,1596337200,96,45.43,61.994,-49.6678,12.17
123,Yauya,8,PE,1596337200,68,51.22,-8.9833,-77.3,4.27
124,Nikolskoye,52,RU,1596337200,84,52.47,59.7035,30.7861,3.85
125,Fernley,0,US,1596337200,8,93.47,39.608,-119.2518,14.94
126,Chui,47,UY,1596337200,87,52.32,-33.6971,-53.4616,7.18
127,Yellowknife,38,CA,1596337200,46,76.23,62.456,-114.3525,11.1
128,Canhotinho,76,BR,1596337200,97,65.26,-8.8822,-36.1911,5.75
129,Djibouti,69,DJ,1596337200,58,86.31,11.5,42.5,4.21
130,Buraidah,18,SA,1596337200,22,89.33,26.326,43.975,4.61
131,Saint-Leu,54,RE,1596337200,74,68.52,-21.15,55.2833,16.15
132,Cherskiy,81,RU,1596337200,62,52.21,68.75,161.3,10.4
133,Port Elizabeth,0,ZA,1596337200,82,55.71,-33.918,25.5701,9.19
134,Kahului,11,US,1596337200,53,80.26,20.8947,-156.47,12.5
135,Hong Kong,100,HK,1596337200,90,82.08,22.2855,114.1577,15.46
136,Castro,0,BR,1596337200,89,51.98,-24.7911,-50.0119,3.31
137,Saint-Augustin,81,CA,1596337200,95,53.53,51.226,-58.6502,0.76
138,Thompson,10,CA,1596337200,52,65.77,55.7435,-97.8558,1.59
139,Saskylakh,100,RU,1596337200,42,73.53,71.9167,114.0833,8.63
140,Vardø,98,NO,1596337200,86,49.15,70.3705,31.1107,13.24
141,Butaritari,9,KI,1596337200,78,83.88,3.0707,172.7902,17.83
142,Lorengau,83,PG,1596337200,75,83.62,-2.0226,147.2712,11.43
143,Lydenburg,0,ZA,1596337200,73,47.01,-25.0978,30.4597,3.33
144,Seguin,8,US,1596337200,47,87.24,29.5688,-97.9647,5.84
145,Pacific Grove,1,US,1596337200,70,62.58,36.6177,-121.9166,7.67
146,Salalah,66,OM,1596337200,87,80.22,17.0151,54.0924,4.14
147,Atuona,87,PF,1596337200,74,79.57,-9.8,-139.0333,15.97
148,Kawalu,77,ID,1596337200,81,76.77,-7.3817,108.2082,2.77
149,Praia,10,CV,1596337200,81,78.93,14.9215,-23.5087,4.21
150,Huarmey,4,PE,1596326400,77,63.77,-10.0681,-78.1522,8.12
151,Bubaque,100,GW,1596337200,79,81.07,11.2833,-15.8333,7.34
152,Pisco,2,PE,1596337200,82,59.7,-13.7,-76.2167,3.13
153,Khandyga,7,RU,1596337200,38,78.12,62.6667,135.6,4.38
154,Mahébourg,86,MU,1596337200,80,71.06,-20.4081,57.7,18.37
155,Vila Velha,77,BR,1596337200,82,68.77,-20.3297,-40.2925,6.17
156,Alyangula,26,AU,1596337200,70,76.26,-13.8483,136.4192,11.36
157,Novyy Urgal,75,RU,1596337200,79,77.27,51.0736,132.5642,1.36
158,Chapais,48,CA,1596337200,66,71.87,49.7834,-74.8492,2.8
159,Penzance,4,GB,1596337200,84,59.92,50.1186,-5.5371,15.19
160,Ilulissat,39,GL,1596337200,91,40.93,69.2167,-51.1,1.9
161,Port Lincoln,97,AU,1596337200,71,57.79,-34.7333,135.8667,5.95
162,Dzaoudzi,38,YT,1596337200,76,76.55,-12.7887,45.2699,17.94
163,Béré,100,TD,1596337200,94,73.53,9.3202,16.1552,6.02
164,Cabedelo,21,BR,1596337200,92,75.25,-6.9811,-34.8339,12.77
165,Bergen,87,NO,1596337200,94,59.52,60.392,5.328,4.85
166,Verkhnyaya Balkariya,77,RU,1596337200,77,63.55,43.1279,43.4573,5.32
167,Kumul,28,CN,1596337200,15,85.82,42.8,93.45,3.02
168,Finschhafen,84,PG,1596337200,75,80.6,-6.6024,147.8681,10.04
169,Pangkalanbuun,96,ID,1596337200,73,87.57,-2.6833,111.6167,4.56
170,Sitka,91,US,1596337200,76,63.54,57.0531,-135.33,7.52
171,Magole,8,TZ,1596337200,74,62.87,-6.3667,37.3667,0.6
172,Hilo,83,US,1596337200,65,77.22,19.7297,-155.09,5.93
173,Polunochnoye,81,RU,1596337200,87,56.05,60.8697,60.4153,5.84
174,Lahaina,13,US,1596337200,52,80.42,20.8783,-156.6825,10.36
175,Luzhou,100,CN,1596337200,85,83.86,28.8724,105.4405,4.25
176,Mandalgovi,80,MN,1596337200,61,62.71,45.7625,106.2708,24.23
177,Ternate,74,ID,1596337200,74,83.35,0.8,127.4,5.21
178,Kungurtug,97,RU,1596337200,70,59.95,50.5994,97.5228,2.01
179,Nangomba,29,TZ,1596337200,63,65.37,-10.9,38.5,4.18
180,Gardenstown,100,GB,1596337200,48,54.48,57.671,-2.336,5.01
181,Orán,2,AR,1596337200,45,71.37,-23.1322,-64.326,1.66
182,Saint George,1,US,1596337200,8,100.87,37.1041,-113.5841,7.49
183,Katangli,100,RU,1596337200,95,63.5,51.7102,143.2326,10.96
184,Praia,10,CV,1596337200,81,78.93,14.9215,-23.5087,4.21
185,Thinadhoo,77,MV,1596337200,78,82.65,0.5333,72.9333,11.52
186,Businga,100,CD,1596337200,95,72.55,3.3333,20.8833,0.94
187,Tuatapere,84,NZ,1596337200,87,52.99,-46.1333,167.6833,5.82
188,Ndélé,100,CF,1596337200,93,71.53,8.4109,20.6473,1.88
189,Rabo de Peixe,76,PT,1596326400,75,69.33,37.8,-25.5833,6.73
190,Okha,100,RU,1596337200,95,52.7,53.5739,142.9478,16.53
191,Tiksi,50,RU,1596337200,70,49.53,71.6872,128.8694,3.65
192,Jūybār,1,IR,1596337200,64,78.51,36.6412,52.9124,5.95
193,Novokayakent,48,RU,1596337200,61,76.87,42.3937,47.9861,14.63
194,Touros,15,BR,1596337200,87,74.93,-5.1989,-35.4608,12.68
195,Kenora,67,CA,1596337200,61,66.61,49.8167,-94.4337,5.95
196,Manbij,0,SY,1596337200,53,77.59,36.5281,37.9549,12.77
197,New Norfolk,64,AU,1596337200,61,52.93,-42.7826,147.0587,10.92
198,Östersund,4,SE,1596326400,74,59.88,63.1792,14.6357,4.5
199,Zhezkazgan,10,KZ,1596337200,41,80.29,47.8043,67.7144,15.32
200,Kwinana,75,AU,1596337200,81,60.49,-32.25,115.7667,7.11
201,Vaitape,13,PF,1596337200,79,79.68,-16.5167,-151.75,10.67
202,Fairbanks,69,US,1596337200,37,79.43,64.8378,-147.7164,4.29
203,Qaqortoq,85,GL,1596337200,84,48.65,60.7167,-46.0333,5.12
204,Airai,1,TL,1596337200,45,72.75,-8.9266,125.4092,4.21
205,Ipixuna,68,BR,1596337200,80,80.26,-1.7625,-48.8043,4.07
206,Ubari,0,LY,1596337200,16,82.11,26.5921,12.7805,7.18
207,Ketchikan,68,US,1596337200,76,63.34,55.3422,-131.6461,8.23
208,Uşak Province,0,TR,1596337200,33,71.74,38.5,29.4167,10.94
209,Pinerolo,69,IT,1596337200,61,72.01,44.8833,7.35,4.16
210,Torbay,77,CA,1596337200,99,59.27,47.6666,-52.7314,3.98
211,Hirado,77,JP,1596337200,85,80.87,33.3597,129.5531,13.62
212,Benavente,22,ES,1596337200,76,60.49,42.0025,-5.6783,9.69
213,Souillac,84,MU,1596337200,80,70.88,-20.5167,57.5167,16.73
214,Fortuna,14,US,1596337200,77,64.63,40.5982,-124.1573,5.95
215,Lavrentiya,98,RU,1596337200,67,46.02,65.5833,-171.0,14.5
216,Los Llanos de Aridane,78,ES,1596337200,80,70.47,28.6585,-17.9182,5.66
217,Guerrero Negro,0,MX,1596337200,61,78.84,27.9769,-114.0611,13.18
218,Longyearbyen,48,SJ,1596337200,81,49.48,78.2186,15.6401,0.98
219,Saint Anthony,56,US,1596337200,69,73.53,45.0205,-93.218,9.22
220,Manyana,0,BW,1596337200,47,47.68,-23.4,21.7167,6.44
221,Waingapu,31,ID,1596337200,61,82.62,-9.6567,120.2641,12.19
222,Havre-St-Pierre,1,CA,1596337200,85,62.42,50.2334,-63.5986,8.46
223,Papayal,0,PE,1596337200,56,74.32,-4.0761,-80.7361,5.06
224,Lakes Entrance,2,AU,1596337200,54,62.46,-37.8811,147.981,2.46
225,Vicuña,19,CL,1596326400,36,65.43,-30.0319,-70.7081,2.95
226,Asău,50,RO,1596337200,84,55.09,46.4333,26.4,2.73
227,Mar del Plata,95,AR,1596337200,84,49.86,-38.0023,-57.5575,13.89
228,Sabang,100,ID,1596337200,75,83.43,5.8933,95.3214,21.27
229,Caucayá,5,CO,1596337200,94,71.83,-0.1934,-74.7819,2.19
230,Brufut,87,GM,1596337200,93,80.65,13.3814,-16.7518,13.02
231,Kaili,94,ID,1596337200,84,73.96,-3.4626,120.2147,4.29
232,Khatanga,100,RU,1596337200,87,62.47,71.9667,102.5,9.22
233,College,87,US,1596337200,42,79.29,64.8569,-147.8028,4.23
234,Ambilobe,1,MG,1596326400,83,67.41,-13.2,49.05,3.4
235,Strezhevoy,66,RU,1596337200,84,70.34,60.7333,77.5889,5.01
236,Umuarama,0,BR,1596337200,68,64.49,-23.7664,-53.325,6.26
237,Uusikaupunki,98,FI,1596337200,90,60.96,60.8004,21.4084,8.79
238,Pudozh,68,RU,1596337200,89,48.96,61.8099,36.5345,3.33
239,Cabo Rojo,91,PR,1596337200,84,80.74,18.0866,-67.1457,8.19
240,Arrondissement du Havre,79,FR,1596337200,80,59.83,49.5833,0.3333,10.13
241,Masuguru,34,TZ,1596337200,62,66.24,-11.3667,38.4167,3.6
242,Savinka,42,RU,1596337200,84,62.47,50.0785,47.0994,7.94
243,Kununurra,1,AU,1596337200,17,84.78,-15.7667,128.7333,11.74
244,Ulvik,99,NO,1596337200,77,62.26,60.5672,6.9187,4.88
245,Moindou,48,NC,1596337200,54,70.3,-21.6924,165.677,11.97
246,Cabo San Lucas,3,MX,1596337200,65,84.87,22.8909,-109.9124,7.9
247,Samarai,37,PG,1596337200,77,77.32,-10.6167,150.6667,15.82
248,Katsuura,42,JP,1596337200,77,79.43,35.1333,140.3,15.1
249,Amapá,88,BR,1596337200,96,72.3,1.0,-52.0,0.54
250,Bethel,21,US,1596337200,61,75.6,41.3712,-73.414,5.32
251,Zhicheng,62,CN,1596337200,68,92.91,30.2956,111.5047,5.1
252,Newport,4,GB,1596337200,84,55.92,51.5877,-2.9984,8.88
253,Esperance,100,AU,1596337200,74,59.63,-33.8667,121.9,10.4
254,Talnakh,81,RU,1596337200,62,65.75,69.4865,88.3972,12.26
255,Usinsk,44,RU,1596337200,86,57.33,65.9939,57.5281,9.8
256,Broken Hill,48,AU,1596337200,38,65.97,-31.95,141.4333,8.59
257,Kisangani,88,CD,1596337200,93,71.85,0.5167,25.2,1.68
258,Palembang,69,ID,1596337200,81,82.83,-2.9167,104.7458,5.01
259,Leningradskiy,96,RU,1596337200,73,42.62,69.3833,178.4167,6.06
260,Mount Isa,0,AU,1596337200,34,75.88,-20.7333,139.5,12.88
261,Iralaya,44,HN,1596337200,76,84.52,15.0,-83.2333,3.67
262,Bakel,70,SN,1596337200,65,83.48,14.905,-12.4568,9.1
263,Hualmay,6,PE,1596337200,84,60.15,-11.0964,-77.6139,8.57
264,Coos Bay,1,US,1596337200,76,64.11,43.3665,-124.2179,4.14
265,Grindavik,94,IS,1596337200,96,50.76,63.8424,-22.4338,15.95
266,Zharkent,36,KZ,1596326400,46,72.19,44.1628,80.0,2.59
267,Fort Frances,6,CA,1596337200,66,66.38,48.5999,-93.4003,5.44
268,Ahipara,100,NZ,1596337200,90,56.89,-35.1667,173.1667,11.95
269,Mossamedes,0,AO,1596337200,71,66.81,-15.1961,12.1522,5.64
270,Fort-Shevchenko,29,KZ,1596337200,52,78.96,44.5086,50.263,4.27
271,Severo-Yeniseyskiy,81,RU,1596337200,69,64.85,60.3725,93.0408,3.67
272,Yalta,0,UA,1596337200,62,67.91,44.5,34.1667,6.62
273,Hasaki,42,JP,1596337200,81,77.58,35.7333,140.8333,13.78
274,Vieques,69,PR,1596337200,81,80.91,18.425,-65.8329,7.83
275,Kampong Thom,100,KH,1596337200,87,81.57,12.7111,104.8887,10.42
276,Chokurdakh,91,RU,1596337200,54,60.57,70.6333,147.9167,6.35
277,Chhoti Sādri,81,IN,1596337200,82,81.79,24.3833,74.7,12.35
278,Edd,50,ER,1596337200,64,88.11,13.9297,41.6925,0.56
279,Marystown,48,CA,1596337200,93,60.48,47.1666,-55.1483,8.28
280,Sur,9,OM,1596337200,73,83.61,22.5667,59.5289,7.56
281,Gairo,3,IT,1596337200,55,78.94,39.8497,9.5047,4.7
282,Lambaréné,92,GA,1596337200,78,73.65,-0.7001,10.2406,3.91
283,Departamento de Maldonado,82,UY,1596337200,88,53.53,-34.6667,-54.9167,9.01
284,Hunchun,88,CN,1596337200,77,76.14,42.8675,130.3581,7.78
285,Gouyave,34,GD,1596337200,80,82.71,12.1646,-61.7296,11.43
286,Namatanai,82,PG,1596337200,77,83.23,-3.6667,152.4333,7.34
287,Seoul,95,KR,1596337200,83,82.26,37.5683,126.9778,9.13
288,Sørland,63,NO,1596337200,83,57.72,67.667,12.6934,7.87
289,Quelimane,36,MZ,1596337200,86,64.89,-17.8786,36.8883,3.31
290,Pindiga,79,NG,1596337200,97,70.95,9.9833,10.9333,9.24
291,Utraula,19,IN,1596337200,76,87.91,27.3167,82.4167,3.91
292,Alofi,99,NU,1596337200,62,74.37,-19.0595,-169.9187,12.17
293,Nekā,0,IR,1596337200,62,79.18,36.6508,53.299,5.88
294,Port Augusta,45,AU,1596337200,43,69.58,-32.5,137.7667,10.4
295,Khomutovo,95,RU,1596337200,97,58.75,52.4658,104.4025,14.54
296,Pozo Colorado,2,PY,1596337200,47,73.67,-23.4923,-58.7972,6.96
297,Madimba,8,TZ,1596337200,88,70.16,-10.4,40.3333,11.68
298,Worland,8,US,1596326400,17,92.64,44.0169,-107.9554,4.79
299,Sipacapa,22,GT,1596337200,76,57.94,15.2,-91.6667,1.03
300,San Borja,12,BO,1596337200,58,71.6,-14.8167,-66.85,2.33
301,Capinota,77,BO,1596337200,37,62.74,-17.7167,-66.2333,2.44
302,Biltine,100,TD,1596337200,76,78.48,14.5333,20.9167,9.46
303,Bom Jesus,22,BR,1596337200,61,69.3,-9.0744,-44.3586,3.24
304,Cockburn Town,69,TC,1596337200,80,82.42,21.4612,-71.1419,19.84
305,Sawtell,0,AU,1596337200,65,63.5,-30.3833,153.1,5.06
306,George,0,ZA,1596337200,61,64.71,-33.963,22.4617,11.23
307,Uzhur,81,RU,1596337200,73,62.33,55.3036,89.8339,4.85
308,Port Hedland,0,AU,1596337200,31,78.44,-20.3167,118.5667,3.49
309,Vao,45,NC,1596337200,70,67.37,-22.6667,167.4833,17.56
310,Madang,91,PG,1596337200,73,84.42,-5.2246,145.7966,6.46
311,Matagami,75,CA,1596337200,70,71.28,49.7502,-77.6328,2.77
312,Mana,97,GF,1596337200,87,78.94,5.6592,-53.7767,7.78
313,Dhidhdhoo,100,MV,1596337200,77,82.6,6.8833,73.1,16.28
314,Pāveh,0,IR,1596337200,31,69.89,35.0434,46.3565,7.29
315,Sulangan,100,PH,1596337200,72,82.62,11.1373,123.7228,3.31
316,Acarí,28,PE,1596337200,62,61.3,-15.4311,-74.6158,2.42
317,Tessalit,26,ML,1596337200,35,92.48,20.1986,1.0114,12.95
318,Shache,99,CN,1596337200,16,85.78,38.4167,77.2406,5.23
319,Kathu,87,TH,1596337200,79,83.23,7.9178,98.3332,19.75
320,Springfield,28,US,1596337200,60,73.51,37.2153,-93.2982,2.66
321,Nowogard,58,PL,1596337200,72,61.09,53.6744,15.1163,8.55
322,São Filipe,6,CV,1596337200,83,77.09,14.8961,-24.4956,4.83
323,Tongliao,79,CN,1596337200,61,90.86,43.6125,122.2653,15.1
324,Contamana,31,PE,1596326400,49,84.29,-7.3333,-75.0167,2.55
325,‘Āhuimanu,40,US,1596326400,62,81.57,21.4447,-157.8378,16.73
326,Luba,87,GQ,1596337200,92,75.83,3.4568,8.5547,8.81
327,Kokopo,69,PG,1596337200,74,85.21,-4.352,152.2633,15.39
328,Georgiyevka,69,KZ,1596337200,64,74.23,43.0369,74.7114,0.58
329,Anshun,13,CN,1596337200,83,76.06,26.25,105.9333,7.49
330,Paita,1,PE,1596337200,82,63.82,-5.0892,-81.1144,13.6
331,Piltene,52,LV,1596337200,92,51.58,57.2243,21.6744,3.67
332,Laguna,3,US,1596337200,24,89.13,38.421,-121.4238,10.58
333,Methóni,0,GR,1596337200,72,77.79,36.8197,21.7049,5.97
334,Mukono,56,UG,1596337200,75,62.24,0.3533,32.7553,1.72
335,Pangnirtung,100,CA,1596337200,79,46.15,66.1451,-65.7125,0.92
336,Basco,100,PH,1596337200,77,84.11,20.4487,121.9702,14.58
337,Zhangye,83,CN,1596337200,17,79.68,38.9342,100.4517,2.48
338,Mumford,16,GH,1596326400,89,73.45,5.2618,-0.759,8.95
339,Sarangani,92,PH,1596337200,71,82.94,5.4033,125.4636,0.81
340,Yelizovo,85,RU,1596337200,55,68.47,53.1873,158.3805,6.44
341,Pilar,69,BR,1596337200,96,70.99,-9.5972,-35.9567,4.29
342,Farafangana,75,MG,1596337200,81,65.28,-22.8167,47.8333,5.82
343,Owando,100,CG,1596337200,83,74.34,-0.4819,15.8999,1.45
344,Avera,1,US,1596337200,45,86.11,33.194,-82.5271,7.72
345,Robertsport,100,LR,1596337200,92,74.64,6.7533,-11.3686,14.03
346,Mildura,47,AU,1596337200,42,68.5,-34.2,142.15,10.54
347,Kuytun,100,RU,1596326400,96,56.79,54.3419,101.5036,16.84
348,Olinda,77,BR,1596337200,81,76.73,-8.0089,-34.8553,14.0
349,Adelaide,59,AU,1596337200,48,60.3,-34.9333,138.6,4.36
350,Kruisfontein,0,ZA,1596337200,61,54.95,-34.0033,24.7314,11.41
351,Bogorodskoye,54,RU,1596337200,96,51.12,56.55,37.8833,7.14
352,Yeppoon,65,AU,1596337200,62,68.38,-23.1333,150.7333,15.39
353,Yangi Marg`ilon,24,UZ,1596337200,39,80.55,40.4272,71.7189,3.02
354,Kushima,47,JP,1596337200,66,88.92,31.4583,131.2333,6.08
355,Flinders,72,AU,1596337200,58,61.83,-34.5833,150.8552,3.65
356,Krasnoarmeysk,0,RU,1596337200,88,57.79,51.0239,45.6969,10.63
357,Liaozhong,80,CN,1596337200,70,87.37,41.5061,122.7242,14.16
358,Quatre Cocos,86,MU,1596337200,80,70.18,-20.2078,57.7625,19.28
359,Verāval,97,IN,1596326400,82,84.06,20.9,70.3667,4.18
360,Nanortalik,99,GL,1596337200,93,45.86,60.1432,-45.2371,15.84
361,Morondava,2,MG,1596337200,55,70.79,-20.2833,44.2833,12.93
362,Progreso,48,MX,1596337200,74,84.88,21.2833,-89.6667,14.25
363,Iquique,66,CL,1596337200,73,58.53,-20.2208,-70.1431,0.76
364,Monterey,1,US,1596337200,49,78.91,36.2505,-121.2516,8.99
365,Gornozavodsk,98,RU,1596337200,85,61.45,58.3758,58.3211,12.73
366,San Javier,1,ES,1596337200,65,81.91,37.8063,-0.8374,3.6
367,Ankazobe,21,MG,1596337200,82,49.89,-18.3167,47.1167,8.93
368,Aleksandrovsk-Sakhalinskiy,100,RU,1596337200,94,62.85,50.8975,142.1561,6.78
369,Kalabo,19,ZM,1596337200,42,51.64,-14.97,22.6814,6.55
370,San Jerónimo,6,PE,1596337200,63,49.86,-11.9472,-75.2829,0.56
371,Catia La Mar,99,VE,1596337200,72,80.96,10.6038,-67.0303,3.0
372,Shibetsu,87,JP,1596337200,88,72.95,43.659,145.132,12.03
373,Maroantsetra,100,MG,1596337200,87,68.22,-15.4333,49.7333,11.3
374,Bonthe,100,SL,1596326400,90,75.85,7.5264,-12.505,10.2
375,Aklavik,69,CA,1596337200,75,61.11,68.2191,-135.0107,19.95
376,Kangaatsiaq,100,GL,1596337200,92,43.95,68.3065,-53.4641,9.8
377,Kieta,58,PG,1596337200,66,84.24,-6.2167,155.6333,3.65
378,Altamira,83,BR,1596337200,59,75.99,-3.2033,-52.2064,2.15
379,La Romana,69,DO,1596337200,87,79.43,18.4273,-68.9728,8.1
380,Onalaska,11,US,1596337200,62,73.42,43.8844,-91.2351,2.01
381,Castrillón,79,ES,1596337200,90,60.28,43.3979,-6.7922,2.91
382,Burnie,72,AU,1596337200,70,53.31,-41.0667,145.9167,10.74
383,Weyburn,6,CA,1596337200,43,72.97,49.6668,-103.8511,6.8
384,Denpasar,59,ID,1596337200,84,77.68,-8.65,115.2167,7.9
385,Pascagoula,17,US,1596337200,74,84.09,30.3658,-88.5561,9.37
386,Moerai,6,PF,1596337200,76,73.9,-22.4333,-151.3333,9.26
387,Payo,96,ID,1596337200,65,86.45,-3.7508,103.6372,1.83
388,High Level,10,CA,1596337200,50,82.69,58.5169,-117.136,7.07
389,Gewanē,93,ET,1596337200,54,80.64,10.1664,40.6453,9.71
390,Tautira,33,PF,1596337200,73,81.25,-17.7333,-149.15,11.5
391,Hornepayne,100,CA,1596337200,93,60.71,49.2138,-84.7705,8.99
392,Ponta Delgada,49,PT,1596337200,74,69.78,37.7333,-25.6667,6.17
393,Along,53,IN,1596337200,77,86.0,28.1667,94.7667,1.28
394,Digha,98,IN,1596337200,76,89.19,21.6833,87.55,5.39
395,San Andrés,22,CO,1596337200,75,84.63,12.5847,-81.7006,9.82
396,Monteagudo,50,BO,1596337200,58,59.49,-19.8167,-63.9833,2.51
397,Kargasok,68,RU,1596337200,85,68.83,59.0556,80.8572,6.24
398,Sretensk,84,RU,1596337200,73,78.04,52.2453,117.7093,7.05
399,Huntsville,21,US,1596337200,73,76.28,34.7304,-86.5861,4.36
400,Mwanza,66,TZ,1596337200,58,67.48,-2.5167,32.9,11.92
401,Troitsko-Pechorsk,76,RU,1596337200,96,55.8,62.7084,56.1964,3.11
402,Nørre Alslev,99,DK,1596337200,81,64.9,54.8978,11.8841,10.74
403,Guatire,99,VE,1596337200,84,74.12,10.4762,-66.5427,4.0
404,Te Anau,95,NZ,1596337200,87,53.53,-45.4167,167.7167,1.77
405,Gachsaran,0,IR,1596337200,33,87.15,30.3586,50.7981,0.63
406,Kosonsoy,1,UZ,1596337200,43,75.0,41.2561,71.5508,3.78
407,East London,0,ZA,1596337200,54,59.77,-33.0153,27.9116,9.73
408,Mombetsu,100,JP,1596337200,67,77.85,44.3525,143.3525,7.85
409,Knysna,1,ZA,1596337200,60,66.4,-34.0363,23.0471,7.78
410,Labuhan,37,ID,1596337200,69,83.84,-6.8844,112.2051,5.12
411,Tabou,97,CI,1596337200,82,74.43,4.423,-7.3528,8.95
412,Taltal,16,CL,1596337200,72,56.66,-25.4,-70.4833,3.2
413,Nacala,52,MZ,1596337200,85,70.66,-14.5428,40.6728,11.21
414,Honningsvåg,94,NO,1596337200,85,49.86,70.9821,25.9704,7.4
415,Nioro,95,GM,1596337200,90,77.86,13.35,-15.75,5.86
416,Amuntai,98,ID,1596337200,94,77.05,-2.4177,115.2494,0.85
417,Santa Lucía,44,ES,1596337200,75,70.93,27.9117,-15.5407,7.9
418,Bengkulu,100,ID,1596337200,76,82.09,-3.8004,102.2655,2.77
419,Diok’nisi,94,GE,1596337200,86,66.58,41.6293,42.3917,1.03
420,Redondo,0,PT,1596337200,70,66.0,38.6487,-7.5471,10.13
421,Chu,100,KZ,1596337200,44,78.76,43.5983,73.7614,6.67
422,Byron Bay,7,AU,1596337200,73,65.43,-28.65,153.6167,5.01
423,Eucaliptus,59,BO,1596337200,52,47.52,-17.5833,-67.5167,1.5
424,Mayo,63,US,1596337200,79,79.52,38.8876,-76.5119,13.13
425,Mananjary,46,MG,1596337200,86,66.27,-21.2167,48.3333,6.98
426,Russell,38,US,1596337200,66,83.46,32.3502,-85.1999,3.29
427,Paciran,52,ID,1596337200,70,84.04,-6.8767,112.3761,3.2
428,Margate,14,GB,1596337200,78,61.66,51.3813,1.3862,16.51
429,Mubi,100,NG,1596337200,92,71.92,10.2676,13.2644,8.23
430,Tibú,31,CO,1596337200,81,79.57,8.639,-72.7358,1.43
431,Yumen,13,CN,1596337200,17,78.96,40.2833,97.2,17.83
432,Matai,66,TZ,1596337200,72,52.65,-8.3,31.5167,8.16
433,Ulaanbaatar,87,MN,1596337200,88,54.66,47.9077,106.8832,8.84
434,Aborlan,100,PH,1596337200,70,85.73,9.4352,118.5492,5.12
435,Portland,20,US,1596337200,39,80.28,45.5234,-122.6762,5.28
436,Alexandria,0,EG,1596337200,83,78.78,31.2156,29.9553,8.81
437,Praia da Vitória,12,PT,1596337200,70,71.17,38.7333,-27.0667,5.68
438,San Policarpo,100,PH,1596337200,71,84.54,12.1791,125.5072,4.65
439,Meulaboh,92,ID,1596337200,69,84.38,4.1363,96.1285,2.24
440,Gallup,11,US,1596337200,20,83.68,35.5281,-108.7426,4.79
441,Sorong,96,ID,1596337200,79,83.71,-0.8833,131.25,10.09
442,Sirte,0,LY,1596337200,76,78.67,31.2089,16.5887,7.72
443,Karwar,100,IN,1596337200,87,79.43,14.8,74.1333,9.28
444,Uauá,24,BR,1596337200,87,65.98,-9.8414,-39.4817,11.65
445,Anloga,35,GH,1596337200,88,74.73,5.7947,0.8973,12.8
446,Laas,86,IT,1596337200,71,62.11,46.6166,10.7002,1.16
447,Asheville,20,US,1596337200,74,73.06,35.6009,-82.554,3.02
448,Poum,1,NC,1596337200,69,69.6,-20.2333,164.0167,21.88
449,Mehamn,100,NO,1596337200,85,48.6,71.0357,27.8492,6.11
450,Beckley,40,US,1596337200,84,71.53,37.7782,-81.1882,5.61
451,Batagay,74,RU,1596337200,41,69.55,67.6333,134.6333,9.8
452,Port Macquarie,0,AU,1596337200,68,62.94,-31.4333,152.9167,4.99
453,Manokwari,50,ID,1596337200,69,84.58,-0.8667,134.0833,5.32
454,Kempsey,0,AU,1596337200,57,68.25,-31.0833,152.8333,3.24
455,Maumere,0,ID,1596337200,63,79.9,-8.6199,122.2111,1.1
456,Bandarbeyla,68,SO,1596337200,66,79.39,9.4942,50.8122,27.29
457,Nemuro,87,JP,1596337200,92,66.7,43.3236,145.575,14.03
458,Ayan,100,RU,1596337200,86,53.65,56.45,138.1667,13.4
459,Umluj,93,SA,1596326400,70,88.54,25.0213,37.2685,16.58
460,Trairi,68,BR,1596337200,81,78.24,-3.2778,-39.2689,11.79
461,Teguise,10,ES,1596337200,87,71.33,29.0605,-13.564,14.52
462,Iquitos,40,PE,1596337200,70,79.41,-3.7481,-73.2472,1.74
463,Constitución,100,CL,1596337200,92,54.52,-35.3333,-72.4167,7.25
464,Nizwá,1,OM,1596337200,41,90.84,22.9333,57.5333,2.46
465,Cayenne,96,GF,1596337200,87,79.57,4.9333,-52.3333,8.01
466,Hamilton,50,US,1596337200,84,74.32,39.1834,-84.5333,9.62
467,Namikupa,2,TZ,1596337200,95,62.53,-10.8333,39.6,4.9
468,Viedma,74,AR,1596337200,58,55.02,-40.8135,-62.9967,11.18
469,Sarmanovo,100,RU,1596337200,87,63.0,55.2553,52.5891,16.31
470,Evensk,95,RU,1596337200,48,61.79,61.95,159.2333,4.05
471,Humaitá,36,BR,1596326400,34,88.16,-7.5061,-63.0208,2.39
472,Menongue,0,AO,1596337200,44,53.35,-14.6585,17.691,7.4
473,Oddur,45,SO,1596337200,76,70.68,4.1213,43.8894,21.94
474,Ken Caryl,43,US,1596337200,40,72.77,39.5773,-105.1169,5.91
475,Sertã,11,PT,1596337200,85,59.9,39.8085,-8.0988,4.97
476,Eraclea,71,IT,1596337200,67,76.87,45.5806,12.6756,10.51
477,Yate,4,GB,1596337200,83,55.15,51.5407,-2.4184,6.98
478,Traverse City,87,US,1596337200,68,72.34,44.7631,-85.6206,2.35
479,Sauda,99,NO,1596337200,78,62.89,59.6506,6.3542,1.79
480,Tilichiki,32,RU,1596337200,56,61.27,60.4667,166.1,3.78
481,Necochea,100,AR,1596337200,88,51.26,-38.5473,-58.7368,10.87
482,Narsaq,86,GL,1596337200,81,49.44,60.9167,-46.05,1.68
483,Naryan-Mar,67,RU,1596337200,92,54.28,67.6713,53.087,8.75
484,Chancay,57,PE,1596337200,82,60.12,-11.5714,-77.2672,5.91
485,Shorāpur,50,IN,1596337200,80,79.05,16.5167,76.75,13.02
486,Paraíso,80,CR,1596337200,89,69.87,9.8383,-83.8656,1.16
487,Christchurch,100,NZ,1596337200,65,56.75,-43.5333,172.6333,4.63
488,Ransang,100,PH,1596337200,63,86.95,8.9603,117.5828,1.74
489,Alice Springs,0,AU,1596337200,21,72.66,-23.7,133.8833,6.71
490,Yamoussoukro,59,CI,1596337200,98,71.15,6.8206,-5.2767,3.33
491,Mudanya,1,TR,1596337200,78,70.32,40.3753,28.8822,7.72
492,Makakilo City,38,US,1596337200,61,81.25,21.3469,-158.0858,16.44
493,Kinablangan,100,PH,1596337200,76,81.48,7.6947,126.5503,6.35
494,Kshenskiy,21,RU,1596337200,95,52.72,51.8408,37.7136,5.75
495,Petra,0,JO,1596337200,42,65.32,30.3222,35.4793,3.83
496,Jutaí,70,BR,1596337200,66,75.06,-5.1833,-68.9,0.76
497,Rawson,41,AR,1596337200,54,52.3,-43.3002,-65.1023,14.72
498,Taoudenni,0,ML,1596337200,11,100.47,22.6783,-3.9836,7.29
499,Itaituba,26,BR,1596337200,51,76.69,-4.2761,-55.9836,1.32
500,Conneaut,95,US,1596337200,92,70.29,41.9476,-80.5542,13.33
501,San Cristobal,33,VE,1596337200,69,77.18,7.7669,-72.225,3.71
502,Nouakchott,13,MR,1596337200,76,82.22,18.0858,-15.9785,18.1
503,‘Ewa Beach,38,US,1596337200,59,82.08,21.3156,-158.0072,17.81
504,Udachny,46,RU,1596337200,44,72.1,66.4167,112.4,4.52
505,Gordeyevka,72,RU,1596337200,93,54.5,52.9569,31.9703,9.73
506,Aripuanã,8,BR,1596337200,39,75.88,-9.1667,-60.6333,2.21
507,Puerto Carreño,96,CO,1596337200,88,77.45,6.189,-67.4859,4.72
508,Shahr-e Kord,0,IR,1596337200,26,69.94,32.3256,50.8644,2.62
509,Burgeo,25,CA,1596337200,86,63.73,47.6167,-57.6152,11.16
510,Sept-Îles,12,CA,1596337200,68,67.82,50.2001,-66.3821,4.03
511,Verkhnevilyuysk,0,RU,1596337200,43,76.8,63.4453,120.3167,6.11
512,Dunedin,95,NZ,1596337200,61,58.98,-45.8742,170.5036,5.28
513,Ust'-Kalmanka,1,RU,1596337200,73,70.21,52.1207,83.305,9.75
514,Urdoma,63,RU,1596337200,90,49.73,61.7533,48.5442,4.63
515,Saint-Pierre,49,RE,1596337200,71,67.73,-21.3393,55.4781,12.77
516,Kendari,47,ID,1596337200,68,85.08,-3.945,122.4989,2.55
517,Rocky Mountain House,82,CA,1596337200,82,72.1,52.3668,-114.9188,10.51
518,Vitim,14,RU,1596337200,45,77.25,59.4511,112.5578,14.0
519,Volodarskiy,69,RU,1596337200,73,71.08,46.4013,48.5409,6.49
520,Koppang,78,NO,1596337200,86,53.35,61.5706,11.0555,4.63
521,San Quintín,1,MX,1596337200,69,75.42,30.4833,-115.95,4.9
522,Manggar,83,ID,1596337200,76,83.71,-2.8833,108.2667,11.21
523,Gornopravdinsk,95,RU,1596337200,87,65.26,60.05,69.9,3.96
524,Bolobo,99,CD,1596337200,52,80.02,-2.1667,16.2333,1.92
525,Baoning,74,CN,1596337200,73,90.09,25.3378,110.026,5.35
526,Mahanoro,10,MG,1596326400,84,63.93,-19.9,48.8,5.3
527,Lillooet,1,CA,1596337200,26,86.68,50.6856,-121.942,4.21
528,El Dorado,39,US,1596337200,60,79.54,33.2076,-92.6663,3.0
529,Florianópolis,0,BR,1596337200,84,63.01,-27.6146,-48.5012,4.47
530,Winnemucca,10,US,1596337200,8,93.34,40.973,-117.7357,8.61
531,Vestmannaeyjar,100,IS,1596337200,94,52.09,63.4427,-20.2734,15.26
532,Boa Vista,59,BR,1596337200,72,81.57,2.8197,-60.6733,3.27
533,Grão Mogol,1,BR,1596337200,92,54.64,-16.5594,-42.8897,3.11
534,Nuevo Progreso,26,MX,1596337200,72,83.21,23.1667,-97.95,3.76
535,Okhotsk,0,RU,1596337200,55,65.3,59.3833,143.3,7.96
536,Porto Seguro,57,BR,1596337200,82,70.93,-16.4497,-39.0647,9.6
537,Columbia,11,US,1596337200,62,85.12,34.0007,-81.0348,8.66
538,Kitimat,98,CA,1596337200,65,67.06,54.0524,-128.6534,2.48
539,Montclair,31,US,1596337200,50,80.55,40.8259,-74.209,7.74
540,Nizhniy Kuranakh,84,RU,1596337200,68,62.37,58.8353,125.4869,12.08
541,Sibut,100,CF,1596337200,94,71.91,5.718,19.0739,2.28
542,Manavālakurichi,78,IN,1596326400,86,78.55,8.1333,77.3,12.93
543,Oliveira,15,BR,1596337200,89,56.32,-20.6964,-44.8272,6.26
544,Tauá,36,BR,1596337200,57,74.55,-5.9667,-40.3,8.7
545,Churhat,50,IN,1596337200,73,87.73,24.428,81.6703,8.01
546,Mocoa,46,CO,1596337200,77,69.66,1.1493,-76.6466,1.72
547,San Juan Bautista,0,PE,1596326400,72,61.38,-14.0108,-75.7358,0.6
548,Pringsewu,89,ID,1596337200,69,86.25,-5.3582,104.9744,1.28
549,Brandon,20,US,1596337200,62,85.95,27.9378,-82.2859,7.67
550,Vodnyy,49,RU,1596337200,92,53.29,63.5046,53.4095,1.77
551,Andapa,75,MG,1596337200,89,62.26,-14.65,49.65,2.33
552,Grand Gaube,60,MU,1596337200,84,71.6,-20.0064,57.6608,23.17
553,Çubuk,1,TR,1596337200,72,64.08,40.2386,33.0322,4.72
554,Smithers,60,CA,1596337200,45,72.63,54.7804,-127.1743,2.68
555,Gizo Government Station,74,SB,1596337200,74,82.2,-8.103,156.8419,4.54
556,Tandil,100,AR,1596337200,94,52.32,-37.3217,-59.1332,7.0
557,Isangel,41,VU,1596337200,73,72.66,-19.55,169.2667,16.51
558,Chivilcoy,98,AR,1596337200,87,59.97,-34.8957,-60.0167,6.15
559,Cape Canaveral,1,US,1596337200,77,83.8,28.4058,-80.6048,13.0
560,Shingū,42,JP,1596337200,74,82.47,33.7333,135.9833,5.75
561,Chunskiy,100,RU,1596337200,96,59.67,56.0815,99.6342,5.88
562,Canary Islands,52,ES,1596337200,74,70.81,28.0,-15.5,9.13
563,General Salgado,15,BR,1596337200,54,66.06,-20.6483,-50.3606,7.7
564,Ashland,84,US,1596337200,97,70.48,40.8167,-82.2665,8.08
565,Puerto Escondido,11,MX,1596337200,77,84.27,15.85,-97.0667,6.62
566,Cheremisinovo,12,RU,1596337200,96,52.23,51.8855,37.2646,6.13
567,Oussouye,69,SN,1596337200,91,78.4,12.485,-16.5469,5.75
568,Kiryat Gat,0,IL,1596337200,73,70.05,31.61,34.7642,5.7
569,Hirara,87,JP,1596337200,86,84.61,24.8,125.2833,32.95
570,Muros,10,ES,1596337200,82,62.76,42.7762,-9.0603,8.72
571,Nagato,41,JP,1596337200,74,85.39,34.3833,131.2,7.78
572,Bindi,75,SL,1596337200,97,69.53,9.9167,-11.45,3.02
573,Muğla Province,0,TR,1596337200,52,73.54,37.2303,28.3557,4.83
574,Eyl,21,SO,1596337200,63,79.03,7.9803,49.8164,23.13
575,Ewo,98,CG,1596337200,69,77.52,-0.8725,14.8206,5.46
576,Ancud,49,CL,1596337200,86,48.85,-41.8697,-73.8203,12.03
577,Port-Gentil,54,GA,1596326400,80,74.93,-0.7193,8.7815,9.71
578,Bilma,93,NE,1596337200,48,87.04,18.6853,12.9164,9.8
579,Oktyabr'skiy,86,RU,1596337200,72,64.45,54.4815,53.471,11.63
580,Caravelas,13,BR,1596337200,83,68.54,-17.7125,-39.2481,5.23
581,Wattegama,54,LK,1596337200,64,84.83,6.7989,81.4808,12.68
582,Lashio,98,MM,1596337200,88,80.76,22.9333,97.75,1.68
583,Srandakan,68,ID,1596337200,75,79.97,-7.9386,110.2506,12.68
584,Nishihara,27,JP,1596337200,78,85.15,26.1842,127.7558,16.6
